Historic,Classification Key,Disaster Group,Disaster Subgroup,Disaster Type,Disaster Subtype,Origin,Latitude,Longitude,River Basin,Start Year,Start Month,Start Day,End Year,End Month,End Day,Total Deaths,No. Injured,No. Affected,No. Homeless,Total Affected,Reconstruction Costs ('000 US$),"Reconstruction Costs, Adjusted ('000 US$)",Insured Damage ('000 US$),"Insured Damage, Adjusted ('000 US$)",Total Damage ('000 US$),"Total Damage, Adjusted ('000 US$)",CPI,Total_Effect,Log_Total_Effect,Risk_Level,Risk_Encoded,Historic_Encoded,Location
No,nat-bio-epi-vir,Natural,Biological,Epidemic,Viral disease,,27.1103723,81.9238906,,2000,5,15,2000,5,17,84,0,1055,37500,1055,,,200000,245398,300000,457449,54.89515197,1139,7.038783541,Moderate,1,0,Gonda
No,nat-bio-epi-vir,Natural,Biological,Epidemic,Viral disease,,25.5008211,80.499762,,2000,5,15,2000,5,17,84,0,1055,37500,1055,,,200000,245398,300000,457449,54.89515197,1139,7.038783541,Moderate,1,0,Banda districts (Uttar Pradesh)
No,nat-bio-epi-bac,Natural,Biological,Epidemic,Bacterial disease,,28.6138954,77.2090057,,2000,5,15,2000,5,17,0,0,192,37500,192,,,200000,245398,300000,457449,54.89515197,192,5.262690189,Mild,0,0,Delhi
No,nat-hyd-flo-riv,Natural,Hydrological,Flood,Riverine flood,,26.2006,92.9376,Singora,2010,9,5,2010,9,17,0,0,30000,37500,30000,,,200000,245398,300000,457449,69.51329329,30000,10.30898599,Moderate,1,0,Lakhimpur district (Assam province)
No,nat-bio-epi-bac,Natural,Biological,Epidemic,Bacterial disease,,19.054999,72.8692035,,2000,7,15,2000,7,17,27,0,79,37500,79,,,200000,245398,300000,457449,54.89515197,106,4.672828834,Mild,0,0,Mumbai
No,nat-bio-epi-bac,Natural,Biological,Epidemic,Bacterial disease,,24.6637,80.9154547,,2000,7,15,2000,7,17,27,0,79,37500,79,,,200000,245398,300000,457449,54.89515197,106,4.672828834,Mild,0,0,Thane districts
No,nat-bio-epi-vir,Natural,Biological,Epidemic,Viral disease,,27.1303344,80.859666,,2000,8,15,2000,8,17,34,0,116,37500,116,,,200000,245398,300000,457449,54.89515197,150,5.017279837,Mild,0,0,Uttar Pradesh
No,nat-bio-epi-dis,Natural,Biological,Epidemic,Infectious disease (General),,22.9964948,87.6855882,,2000,10,15,2000,10,17,51,0,1300000,37500,0,,,200000,245398,300000,457449,54.89515197,51,3.951243719,Mild,0,0,West Bengal
No,nat-bio-epi-vir,Natural,Biological,Epidemic,Viral disease,,18.1080872,83.3979523,,2000,10,12,2000,10,12,14,0,64,37500,64,,,200000,245398,300000,457449,54.89515197,78,4.369447852,Mild,0,0,Andhra Pradesh state
No,nat-bio-epi-vir,Natural,Biological,Epidemic,Viral disease,,26.1524245,86.7968479,,2000,10,26,2000,10,26,13,0,287,37500,287,,,200000,245398,300000,457449,54.89515197,300,5.707110265,Mild,0,0,Supaul district (Bihar)
No,nat-hyd-flo-flo,Natural,Hydrological,Flood,Flood (General),Heavy rains,8.8457035,77.9938178,,2023,12,18,2023,12,20,10,0,1300000,37500,0,,,200000,245398,300000,457449,97.13499264,10,2.397895273,Mild,0,0,Thoothukudi
No,nat-hyd-flo-flo,Natural,Hydrological,Flood,Flood (General),Heavy rains,8.5495014,77.5805178,,2023,12,18,2023,12,20,10,0,1300000,37500,0,,,200000,245398,300000,457449,97.13499264,10,2.397895273,Mild,0,0,Tirunelveli
No,nat-hyd-flo-flo,Natural,Hydrological,Flood,Flood (General),Heavy rains,11.1271,78.6569,,2023,12,18,2023,12,20,10,0,1300000,37500,0,,,200000,245398,300000,457449,97.13499264,10,2.397895273,Mild,0,0,Kanniyakumari and Tenkasi Districts (Tamil Nadu state)
No,nat-bio-epi-vir,Natural,Biological,Epidemic,Viral disease,,24.8858896,85.5481255,,2000,8,31,2000,8,31,19,0,58,37500,58,,,200000,245398,300000,457449,54.89515197,77,4.356708827,Mild,0,0,Nawadah district (Bihar)
No,nat-met-ext-col,Natural,Meteorological,Extreme temperature,Cold wave,,28.6138954,77.2090057,,2018,1,1,2018,2,7,44,0,1300000,37500,0,,,200000,245398,300000,457449,80.04959626,44,3.80666249,Mild,0,0,New Delhi
No,nat-bio-epi-dis,Natural,Biological,Epidemic,Infectious disease (General),,26.6923056,88.4465155,,2001,2,1,2001,2,1,28,0,42,37500,42,,,200000,245398,300000,457449,56.44657635,70,4.262679877,Mild,0,0,Siliguri (West Bengal)
No,nat-cli-glo-glo,Natural,Climatological,Glacial lake outburst flood,Glacial lake outburst flood,,30.0668,79.0193,,2021,4,23,2021,4,23,16,24,1300000,37500,24,,,200000,245398,300000,457449,86.38165694,64,4.17438727,Mild,0,0,Chamoli District (Uttarakhand State)
No,nat-bio-epi-bac,Natural,Biological,Epidemic,Bacterial disease,,19.3653598,73.3685437,,2001,6,18,2001,6,18,16,0,83,37500,83,,,200000,245398,300000,457449,56.44657635,99,4.605170186,Mild,0,0,Mumbai
No,nat-bio-epi-bac,Natural,Biological,Epidemic,Bacterial disease,,20.2429056,85.7879018,,2001,6,18,2001,6,18,16,0,83,37500,83,,,200000,245398,300000,457449,56.44657635,99,4.605170186,Mild,0,0,Thane
No,nat-bio-epi-bac,Natural,Biological,Epidemic,Bacterial disease,floods,20.2429056,85.7879018,,2001,7,7,2001,8,17,33,0,34078,37500,34078,,,200000,245398,300000,457449,56.44657635,34111,10.43740451,Moderate,1,0,Orissa State
No,nat-bio-epi-par,Natural,Biological,Epidemic,Parasitic disease,,20.9517,85.0985,,2001,8,15,2001,8,17,12,0,24686,37500,24686,,,200000,245398,300000,457449,56.44657635,24698,10.11451804,Moderate,1,0,Orissa state
No,nat-met-sto-tro,Natural,Meteorological,Storm,Tropical cyclone,,26.1805978,91.753943,,2020,11,25,2020,11,26,14,0,1300000,37500,0,,,200000,245398,600000,727223,82.50568385,14,2.708050201,Mild,0,0,Tamil Nadu and Puducherry
No,nat-geo-ear-gro,Natural,Geophysical,Earthquake,Ground movement,,26.1805978,91.753943,,2016,1,3,2016,1,3,8,308,10500,37500,10808,,,200000,245398,75000,98025,76.5112162,11124,9.316950107,Moderate,1,0,Guwahati city (Kamrup district
No,nat-geo-ear-gro,Natural,Geophysical,Earthquake,Ground movement,,24.8066181,93.9346851,,2016,1,3,2016,1,3,8,308,10500,37500,10808,,,200000,245398,75000,98025,76.5112162,11124,9.316950107,Moderate,1,0,Assam province)
No,nat-geo-ear-gro,Natural,Geophysical,Earthquake,Ground movement,,24.8049259,93.9348265,,2016,1,3,2016,1,3,8,308,10500,37500,10808,,,200000,245398,75000,98025,76.5112162,11124,9.316950107,Moderate,1,0,East Imphal
No,nat-geo-ear-gro,Natural,Geophysical,Earthquake,Ground movement,,25.3933698,94.1501773,,2016,1,3,2016,1,3,8,308,10500,37500,10808,,,200000,245398,75000,98025,76.5112162,11124,9.316950107,Moderate,1,0,West Imphal
No,nat-geo-ear-gro,Natural,Geophysical,Earthquake,Ground movement,,24.6386954,93.996871,,2016,1,3,2016,1,3,8,308,10500,37500,10808,,,200000,245398,75000,98025,76.5112162,11124,9.316950107,Moderate,1,0,Senapati
No,nat-geo-ear-gro,Natural,Geophysical,Earthquake,Ground movement,,23.0757335,87.3146343,,2016,1,3,2016,1,3,8,308,10500,37500,10808,,,200000,245398,75000,98025,76.5112162,11124,9.316950107,Moderate,1,0,Thoubal
No,nat-geo-ear-gro,Natural,Geophysical,Earthquake,Ground movement,,23.0757335,87.3146343,,2016,1,3,2016,1,3,8,308,10500,37500,10808,,,200000,245398,75000,98025,76.5112162,11124,9.316950107,Moderate,1,0,Bishnupur
No,nat-geo-ear-gro,Natural,Geophysical,Earthquake,Ground movement,,12.8796052,79.7042762,,2016,1,3,2016,1,3,8,308,10500,37500,10808,,,200000,245398,75000,98025,76.5112162,11124,9.316950107,Moderate,1,0,Tamenglong districts (Manipur province)
No,nat-geo-ear-tsu,Natural,Geophysical,Earthquake,Tsunami,Earthquake,11.9398285,79.4945645,,2004,12,26,2004,12,26,16389,6913,647599,37500,654512,,,5000,8304,1022800,1698620,60.21357973,677814,13.42662967,Moderate,1,0,Kancheepuram
No,nat-geo-ear-tsu,Natural,Geophysical,Earthquake,Tsunami,Earthquake,10.6026203,79.7619348,,2004,12,26,2004,12,26,16389,6913,647599,37500,654512,,,5000,8304,1022800,1698620,60.21357973,677814,13.42662967,Moderate,1,0,Villupuram
No,nat-geo-ear-tsu,Natural,Geophysical,Earthquake,Tsunami,Earthquake,10.6026203,79.7619348,,2004,12,26,2004,12,26,16389,6913,647599,37500,654512,,,5000,8304,1022800,1698620,60.21357973,677814,13.42662967,Moderate,1,0,Nagapattinam
No,nat-geo-ear-tsu,Natural,Geophysical,Earthquake,Tsunami,Earthquake,8.3279814,77.3541173,,2004,12,26,2004,12,26,16389,6913,647599,37500,654512,,,5000,8304,1022800,1698620,60.21357973,677814,13.42662967,Moderate,1,0,Thoothukudi
No,nat-geo-ear-tsu,Natural,Geophysical,Earthquake,Tsunami,Earthquake,13.0836939,80.270186,,2004,12,26,2004,12,26,16389,6913,647599,37500,654512,,,5000,8304,1022800,1698620,60.21357973,677814,13.42662967,Moderate,1,0,Tirunelveli Kattabo
No,nat-geo-ear-tsu,Natural,Geophysical,Earthquake,Tsunami,Earthquake,13.2537619,80.0562572,,2004,12,26,2004,12,26,16389,6913,647599,37500,654512,,,5000,8304,1022800,1698620,60.21357973,677814,13.42662967,Moderate,1,0,Kanniyakumari
No,nat-geo-ear-tsu,Natural,Geophysical,Earthquake,Tsunami,Earthquake,11.5202071,79.3396356,,2004,12,26,2004,12,26,16389,6913,647599,37500,654512,,,5000,8304,1022800,1698620,60.21357973,677814,13.42662967,Moderate,1,0,Chennai
No,nat-geo-ear-tsu,Natural,Geophysical,Earthquake,Tsunami,Earthquake,10.2903072,78.8173617,,2004,12,26,2004,12,26,16389,6913,647599,37500,654512,,,5000,8304,1022800,1698620,60.21357973,677814,13.42662967,Moderate,1,0,Thiruvallur
No,nat-geo-ear-tsu,Natural,Geophysical,Earthquake,Tsunami,Earthquake,9.5205576,78.5184635,,2004,12,26,2004,12,26,16389,6913,647599,37500,654512,,,5000,8304,1022800,1698620,60.21357973,677814,13.42662967,Moderate,1,0,Cuddalore
No,nat-geo-ear-tsu,Natural,Geophysical,Earthquake,Tsunami,Earthquake,9.8486881,78.4870461,,2004,12,26,2004,12,26,16389,6913,647599,37500,654512,,,5000,8304,1022800,1698620,60.21357973,677814,13.42662967,Moderate,1,0,Pudukkottai
No,nat-geo-ear-tsu,Natural,Geophysical,Earthquake,Tsunami,Earthquake,9.5205576,78.5184635,,2004,12,26,2004,12,26,16389,6913,647599,37500,654512,,,5000,8304,1022800,1698620,60.21357973,677814,13.42662967,Moderate,1,0,Ramanathapuram
No,nat-geo-ear-tsu,Natural,Geophysical,Earthquake,Tsunami,Earthquake,9.8486881,78.4870461,,2004,12,26,2004,12,26,16389,6913,647599,37500,654512,,,5000,8304,1022800,1698620,60.21357973,677814,13.42662967,Moderate,1,0,Sivaganga
No,nat-geo-ear-tsu,Natural,Geophysical,Earthquake,Tsunami,Earthquake,16.9956639,81.7154378,,2004,12,26,2004,12,26,16389,6913,647599,37500,654512,,,5000,8304,1022800,1698620,60.21357973,677814,13.42662967,Moderate,1,0,Thanjavur districts (Tamil Nadu province)
No,nat-geo-ear-tsu,Natural,Geophysical,Earthquake,Tsunami,Earthquake,16.6443029,81.5885247,,2004,12,26,2004,12,26,16389,6913,647599,37500,654512,,,5000,8304,1022800,1698620,60.21357973,677814,13.42662967,Moderate,1,0,Visakhapatnam
No,nat-geo-ear-tsu,Natural,Geophysical,Earthquake,Tsunami,Earthquake,16.4082817,77.2914991,,2004,12,26,2004,12,26,16389,6913,647599,37500,654512,,,5000,8304,1022800,1698620,60.21357973,677814,13.42662967,Moderate,1,0,East Godavari
No,nat-geo-ear-tsu,Natural,Geophysical,Earthquake,Tsunami,Earthquake,16.2915189,80.4541588,,2004,12,26,2004,12,26,16389,6913,647599,37500,654512,,,5000,8304,1022800,1698620,60.21357973,677814,13.42662967,Moderate,1,0,West Godavari
No,nat-geo-ear-tsu,Natural,Geophysical,Earthquake,Tsunami,Earthquake,15.6642644,79.4733001,,2004,12,26,2004,12,26,16389,6913,647599,37500,654512,,,5000,8304,1022800,1698620,60.21357973,677814,13.42662967,Moderate,1,0,Krishna
No,nat-geo-ear-tsu,Natural,Geophysical,Earthquake,Tsunami,Earthquake,16.2915189,80.4541588,,2004,12,26,2004,12,26,16389,6913,647599,37500,654512,,,5000,8304,1022800,1698620,60.21357973,677814,13.42662967,Moderate,1,0,Guntur
No,nat-geo-ear-tsu,Natural,Geophysical,Earthquake,Tsunami,Earthquake,8.8870533,76.5906696,,2004,12,26,2004,12,26,16389,6913,647599,37500,654512,,,5000,8304,1022800,1698620,60.21357973,677814,13.42662967,Moderate,1,0,Prakasam
No,nat-geo-ear-tsu,Natural,Geophysical,Earthquake,Tsunami,Earthquake,9.5003416,76.4123364,,2004,12,26,2004,12,26,16389,6913,647599,37500,654512,,,5000,8304,1022800,1698620,60.21357973,677814,13.42662967,Moderate,1,0,Nellore districts (Andhra Pradesh province)
No,nat-geo-ear-tsu,Natural,Geophysical,Earthquake,Tsunami,Earthquake,8.8870533,76.5906696,,2004,12,26,2004,12,26,16389,6913,647599,37500,654512,,,5000,8304,1022800,1698620,60.21357973,677814,13.42662967,Moderate,1,0,Kollam
No,nat-geo-ear-tsu,Natural,Geophysical,Earthquake,Tsunami,Earthquake,10.9156489,79.8069488,,2004,12,26,2004,12,26,16389,6913,647599,37500,654512,,,5000,8304,1022800,1698620,60.21357973,677814,13.42662967,Moderate,1,0,Alappuzha
No,nat-geo-ear-tsu,Natural,Geophysical,Earthquake,Tsunami,Earthquake,10.8505,76.2711,,2004,12,26,2004,12,26,16389,6913,647599,37500,654512,,,5000,8304,1022800,1698620,60.21357973,677814,13.42662967,Moderate,1,0,Ernakulam districts (Kerala province)
No,nat-geo-ear-tsu,Natural,Geophysical,Earthquake,Tsunami,Earthquake,11.9416,79.8083,,2004,12,26,2004,12,26,16389,6913,647599,37500,654512,,,5000,8304,1022800,1698620,60.21357973,677814,13.42662967,Moderate,1,0,Puducherry
No,nat-geo-ear-tsu,Natural,Geophysical,Earthquake,Tsunami,Earthquake,31.6516617,77.0092542,,2004,12,26,2004,12,26,16389,6913,647599,37500,654512,,,5000,8304,1022800,1698620,60.21357973,677814,13.42662967,Moderate,1,0,Karaikal district (Puducherry province)
No,nat-geo-ear-tsu,Natural,Geophysical,Earthquake,Tsunami,Earthquake,26.4073841,93.2551303,,2004,12,26,2004,12,26,16389,6913,647599,37500,654512,,,5000,8304,1022800,1698620,60.21357973,677814,13.42662967,Moderate,1,0,Andaman and Nicobar province
No,nat-bio-epi-vir,Natural,Biological,Epidemic,Viral disease,,31.6516617,77.0092542,,2002,3,12,2002,3,12,0,0,200,37500,200,,,200000,245398,300000,457449,57.34184015,200,5.303304908,Mild,0,0,Mandi district
No,nat-bio-epi-par,Natural,Biological,Epidemic,Parasitic disease,,21.4176122,71.249609,,2002,5,1,2002,5,1,50,0,4950,37500,4950,,,200000,245398,300000,457449,57.34184015,5000,8.517393171,Moderate,1,0,Assam
No,nat-hyd-flo-riv,Natural,Hydrological,Flood,Riverine flood,Monsoonal rain,21.7718836,72.1416449,Pooma,2007,7,1,2007,7,13,225,0,63000,37500,63000,,,200000,245398,300000,457449,66.09810297,63225,11.05447089,Moderate,1,0,Junagadh district (Daman and Diu province)
No,nat-hyd-flo-riv,Natural,Hydrological,Flood,Riverine flood,Monsoonal rain,22.4732415,70.0552102,Pooma,2007,7,1,2007,7,13,225,0,63000,37500,63000,,,200000,245398,300000,457449,66.09810297,63225,11.05447089,Moderate,1,0,Amreli
No,nat-hyd-flo-riv,Natural,Hydrological,Flood,Riverine flood,Monsoonal rain,21.5220416,70.4582458,Pooma,2007,7,1,2007,7,13,225,0,63000,37500,63000,,,200000,245398,300000,457449,66.09810297,63225,11.05447089,Moderate,1,0,Bhavnagar
No,nat-hyd-flo-riv,Natural,Hydrological,Flood,Riverine flood,Monsoonal rain,21.6029751,69.8538067,Pooma,2007,7,1,2007,7,13,225,0,63000,37500,63000,,,200000,245398,300000,457449,66.09810297,63225,11.05447089,Moderate,1,0,Jamnagar
No,nat-hyd-flo-riv,Natural,Hydrological,Flood,Riverine flood,Monsoonal rain,22.3053263,70.8028377,Pooma,2007,7,1,2007,7,13,225,0,63000,37500,63000,,,200000,245398,300000,457449,66.09810297,63225,11.05447089,Moderate,1,0,Junagadh
No,nat-hyd-flo-riv,Natural,Hydrological,Flood,Riverine flood,Monsoonal rain,21.6029751,69.8538067,Pooma,2007,7,1,2007,7,13,225,0,63000,37500,63000,,,200000,245398,300000,457449,66.09810297,63225,11.05447089,Moderate,1,0,Porbandar
No,nat-hyd-flo-riv,Natural,Hydrological,Flood,Riverine flood,Monsoonal rain,26.8105777,73.7684549,Pooma,2007,7,1,2007,7,13,225,0,63000,37500,63000,,,200000,245398,300000,457449,66.09810297,63225,11.05447089,Moderate,1,0,Rajkot
No,nat-hyd-flo-riv,Natural,Hydrological,Flood,Riverine flood,Monsoonal rain,23.8143419,77.5340719,Pooma,2007,7,1,2007,7,13,225,0,63000,37500,63000,,,200000,245398,300000,457449,66.09810297,63225,11.05447089,Moderate,1,0,Surendranagar districts (Gujarat province)
No,nat-hyd-flo-riv,Natural,Hydrological,Flood,Riverine flood,Monsoonal rain,29.9378275,77.5383417,Pooma,2007,7,1,2007,7,13,225,0,63000,37500,63000,,,200000,245398,300000,457449,66.09810297,63225,11.05447089,Moderate,1,0,Rajasthan
No,nat-hyd-flo-riv,Natural,Hydrological,Flood,Riverine flood,Monsoonal rain,16.5815096,81.9963295,Pooma,2007,7,1,2007,7,13,225,0,63000,37500,63000,,,200000,245398,300000,457449,66.09810297,63225,11.05447089,Moderate,1,0,Madhya Pradesh
No,nat-bio-epi-vir,Natural,Biological,Epidemic,Viral disease,,20.5431241,84.6897321,,2002,8,13,2002,8,13,86,0,1300000,37500,0,,,200000,245398,300000,457449,57.34184015,86,4.465908119,Mild,0,0,Assam
No,nat-bio-epi-dis,Natural,Biological,Epidemic,Infectious disease (General),,26.8467,80.9462,,2002,9,1,2002,9,1,44,0,1300000,37500,0,,,200000,245398,300000,457449,57.34184015,44,3.80666249,Mild,0,0,Saharanpur (Uttar Pradesh)
No,nat-met-sto-tro,Natural,Meteorological,Storm,Tropical cyclone,,15.9129,79.74,,2025,10,28,2025,10,30,8,0,1800000,37500,1800000,,,200000,245398,600000,457449,68.63567228,1800008,14.40330222,High,2,0,Konaseema district (Andhra Pradesh)
No,nat-met-sto-tro,Natural,Meteorological,Storm,Tropical cyclone,,20.9517,85.0985,,2025,10,28,2025,10,30,8,0,1800000,37500,1800000,,,200000,245398,600000,457449,68.63567228,1800008,14.40330222,High,2,0,Odisha
No,nat-met-sto-tro,Natural,Meteorological,Storm,Tropical cyclone,,25.4003625,93.0752292,,2025,10,28,2025,10,30,8,0,1800000,37500,1800000,,,200000,245398,600000,457449,68.63567228,1800008,14.40330222,High,2,0,and Telangana states
No,nat-hyd-mmw-ava,Natural,Hydrological,Mass movement (wet),Avalanche (wet),,24.75864,92.8816648,,2003,3,3,2003,3,3,25,0,1300000,37500,0,,,200000,245398,300000,457449,58.64355298,25,3.258096538,Mild,0,0,Administrative unit not available district (Jammu and Kashmir province)
No,nat-hyd-flo-flo,Natural,Hydrological,Flood,Flood (General),Heavy rains,26.7047238,92.0421507,Kopili river,2022,5,17,2022,10,31,2035,1260,1300000,37500,1301260,,,200000,245398,4200000,4501868,93.29460735,1304555,14.08137331,High,2,0,Itanagar distrci (Arunchal Pradesh)
No,nat-hyd-flo-flo,Natural,Hydrological,Flood,Flood (General),Heavy rains,25.4023736,91.8317178,Kopili river,2022,5,17,2022,10,31,2035,1260,1300000,37500,1301260,,,200000,245398,4200000,4501868,93.29460735,1304555,14.08137331,High,2,0,Dima Hasao
No,nat-hyd-flo-flo,Natural,Hydrological,Flood,Flood (General),Heavy rains,24.75864,92.8816648,Kopili river,2022,5,17,2022,10,31,2035,1260,1300000,37500,1301260,,,200000,245398,4200000,4501868,93.29460735,1304555,14.08137331,High,2,0,Cachar
No,nat-hyd-flo-flo,Natural,Hydrological,Flood,Flood (General),Heavy rains,26.1630556,94.5884911,Kopili river,2022,5,17,2022,10,31,2035,1260,1300000,37500,1301260,,,200000,245398,4200000,4501868,93.29460735,1304555,14.08137331,High,2,0,Udalguri District (Assam)
No,nat-hyd-flo-flo,Natural,Hydrological,Flood,Flood (General),Heavy rains,25.6440845,85.906508,Kopili river,2022,5,17,2022,10,31,2035,1260,1300000,37500,1301260,,,200000,245398,4200000,4501868,93.29460735,1304555,14.08137331,High,2,0,East Khasi Hills
No,nat-hyd-flo-flo,Natural,Hydrological,Flood,Flood (General),Heavy rains,31.9292352,77.1828462,Kopili river,2022,5,17,2022,10,31,2035,1260,1300000,37500,1301260,,,200000,245398,4200000,4501868,93.29460735,1304555,14.08137331,High,2,0,Ri-Bhoi Districts (Meghalaya)
No,nat-hyd-flo-flo,Natural,Hydrological,Flood,Flood (General),Heavy rains,22.3850051,71.745261,Kopili river,2022,5,17,2022,10,31,2035,1260,1300000,37500,1301260,,,200000,245398,4200000,4501868,93.29460735,1304555,14.08137331,High,2,0,Nagaland
No,nat-hyd-flo-flo,Natural,Hydrological,Flood,Flood (General),Heavy rains,18.6109948,73.8029596,Kopili river,2022,5,17,2022,10,31,2035,1260,1300000,37500,1301260,,,200000,245398,4200000,4501868,93.29460735,1304555,14.08137331,High,2,0,Bihar
No,nat-hyd-flo-flo,Natural,Hydrological,Flood,Flood (General),Heavy rains,31.1048,77.1665,Kopili river,2022,5,17,2022,10,31,2035,1260,1300000,37500,1301260,,,200000,245398,4200000,4501868,93.29460735,1304555,14.08137331,High,2,0,Himachal Pradesh
No,nat-hyd-flo-flo,Natural,Hydrological,Flood,Flood (General),Heavy rains,22.9734,78.6569,Kopili river,2022,5,17,2022,10,31,2035,1260,1300000,37500,1301260,,,200000,245398,4200000,4501868,93.29460735,1304555,14.08137331,High,2,0,Madhya Pradesh
No,nat-hyd-flo-flo,Natural,Hydrological,Flood,Flood (General),Heavy rains,22.2587,71.1924,Kopili river,2022,5,17,2022,10,31,2035,1260,1300000,37500,1301260,,,200000,245398,4200000,4501868,93.29460735,1304555,14.08137331,High,2,0,Gujarat
No,nat-hyd-flo-flo,Natural,Hydrological,Flood,Flood (General),Heavy rains,18.6109948,73.8029596,Kopili river,2022,5,17,2022,10,31,2035,1260,1300000,37500,1301260,,,200000,245398,4200000,4501868,93.29460735,1304555,14.08137331,High,2,0,Maharashtra
No,nat-met-sto-lig,Natural,Meteorological,Storm,Lightning/Thunderstorms,,28.1698002,94.79854,,2018,4,11,2018,4,11,42,200,1300000,37500,200,,,200000,245398,100000,124923,80.04959626,442,6.09356977,Mild,0,0,Uttar Pradesh
No,nat-met-sto-lig,Natural,Meteorological,Storm,Lightning/Thunderstorms,,27.0238,74.2179,,2018,4,11,2018,4,11,42,200,1300000,37500,200,,,200000,245398,100000,124923,80.04959626,442,6.09356977,Mild,0,0,Rajasthan
No,nat-hyd-mmw-lan,Natural,Hydrological,Mass movement (wet),Landslide (wet),,28.0589676,95.3324944,,2001,7,16,2001,7,16,27,0,1300000,37500,0,,,200000,245398,300000,457449,56.44657635,27,3.33220451,Mild,0,0,Rudra Prayag district (Uttarakhand province)
No,nat-bio-epi-vir,Natural,Biological,Epidemic,Viral disease,,27.91489,95.34622,,2003,6,1,2003,11,9,0,0,2185,37500,2185,,,200000,245398,300000,457449,58.64355298,2185,7.689828669,Moderate,1,0,Delhi
No,nat-hyd-flo-fla,Natural,Hydrological,Flood,Flash flood,,28.0762119,95.3339035,,2000,6,10,2000,6,10,20,0,3000000,37500,3000000,,,200000,245398,300000,457449,54.89515197,3000020,14.91412985,High,2,0,Yingkiang
No,nat-hyd-flo-fla,Natural,Hydrological,Flood,Flash flood,,28.0990789,95.304323,,2000,6,10,2000,6,10,20,0,3000000,37500,3000000,,,200000,245398,300000,457449,54.89515197,3000020,14.91412985,High,2,0,Tuting villages (Upper Siang (70051) district
No,nat-hyd-flo-fla,Natural,Hydrological,Flood,Flash flood,,27.9254195,96.1647135,,2000,6,10,2000,6,10,20,0,3000000,37500,3000000,,,200000,245398,300000,457449,54.89515197,3000020,14.91412985,High,2,0,Arunachal Pradesh province)
No,nat-hyd-flo-fla,Natural,Hydrological,Flood,Flash flood,,28.1698002,94.79854,,2000,6,10,2000,6,10,20,0,3000000,37500,3000000,,,200000,245398,300000,457449,54.89515197,3000020,14.91412985,High,2,0,Along
No,nat-hyd-flo-fla,Natural,Hydrological,Flood,Flash flood,,26.5108262,93.9743686,,2000,6,10,2000,6,10,20,0,3000000,37500,3000000,,,200000,245398,300000,457449,54.89515197,3000020,14.91412985,High,2,0,Boleng villages 
No,nat-hyd-flo-fla,Natural,Hydrological,Flood,Flash flood,,28.0742219,95.4178149,,2000,6,10,2000,6,10,20,0,3000000,37500,3000000,,,200000,245398,300000,457449,54.89515197,3000020,14.91412985,High,2,0,Pasighat
No,nat-hyd-flo-fla,Natural,Hydrological,Flood,Flash flood,,28.1970922,94.48407,,2000,6,10,2000,6,10,20,0,3000000,37500,3000000,,,200000,245398,300000,457449,54.89515197,3000020,14.91412985,High,2,0,Sika-bamin
No,nat-hyd-flo-fla,Natural,Hydrological,Flood,Flash flood,,28.7312046,95.0377315,,2000,6,10,2000,6,10,20,0,3000000,37500,3000000,,,200000,245398,300000,457449,54.89515197,3000020,14.91412985,High,2,0,Komlighat
No,nat-hyd-flo-fla,Natural,Hydrological,Flood,Flash flood,,28.0990789,95.304323,,2000,6,10,2000,6,10,20,0,3000000,37500,3000000,,,200000,245398,300000,457449,54.89515197,3000020,14.91412985,High,2,0,Raneghat (70041 district
No,nat-hyd-flo-fla,Natural,Hydrological,Flood,Flash flood,,28.218,94.7278,,2000,6,10,2000,6,10,20,0,3000000,37500,3000000,,,200000,245398,300000,457449,54.89515197,3000020,14.91412985,High,2,0,Arunachal Pradesh province)
No,nat-hyd-flo-fla,Natural,Hydrological,Flood,Flash flood,,23.7750823,91.7025091,,2000,6,10,2000,6,10,20,0,3000000,37500,3000000,,,200000,245398,300000,457449,54.89515197,3000020,14.91412985,High,2,0,Tezu
No,nat-hyd-flo-fla,Natural,Hydrological,Flood,Flash flood,,24.7208818,93.9229386,,2000,6,10,2000,6,10,20,0,3000000,37500,3000000,,,200000,245398,300000,457449,54.89515197,3000020,14.91412985,High,2,0,Mahadevpur villages (Lohit district
No,nat-hyd-flo-fla,Natural,Hydrological,Flood,Flash flood,,23.2146169,92.8687612,,2000,6,10,2000,6,10,20,0,3000000,37500,3000000,,,200000,245398,300000,457449,54.89515197,3000020,14.91412985,High,2,0,Arunachal Pradesh province)
No,nat-hyd-flo-fla,Natural,Hydrological,Flood,Flash flood,,29,76,,2000,6,10,2000,6,10,20,0,3000000,37500,3000000,,,200000,245398,300000,457449,54.89515197,3000020,14.91412985,High,2,0,Golaghat
No,nat-hyd-flo-fla,Natural,Hydrological,Flood,Flash flood,,30.7334421,76.7797143,,2000,6,10,2000,6,10,20,0,3000000,37500,3000000,,,200000,245398,300000,457449,54.89515197,3000020,14.91412985,High,2,0,Nagaon districts (Assam province)
No,nat-hyd-flo-fla,Natural,Hydrological,Flood,Flash flood,,30.0417376,79.089691,,2000,7,15,2000,7,17,130,0,1300000,37500,0,,,200000,245398,300000,457449,54.89515197,130,4.875197323,Mild,0,0,East Siang
No,nat-hyd-flo-fla,Natural,Hydrological,Flood,Flash flood,,19.5670323,76.4164557,,2000,7,15,2000,7,17,130,0,1300000,37500,0,,,200000,245398,300000,457449,54.89515197,130,4.875197323,Mild,0,0,West Siang
No,nat-hyd-flo-fla,Natural,Hydrological,Flood,Flash flood,,21.0387955,75.0545539,,2000,7,15,2000,7,17,130,0,1300000,37500,0,,,200000,245398,300000,457449,54.89515197,130,4.875197323,Mild,0,0,Upper Siang (70051)
No,nat-hyd-flo-fla,Natural,Hydrological,Flood,Flash flood,,28.218,94.7278,,2000,7,15,2000,7,17,130,0,1300000,37500,0,,,200000,245398,300000,457449,54.89515197,130,4.875197323,Mild,0,0,Lower Dibang Valley districts (Arunachal Pradesh province)
No,nat-met-sto-sto,Natural,Meteorological,Storm,Storm (General),,26.8467,80.9462,,2018,6,8,2018,6,12,61,0,1300000,37500,0,,,200000,245398,50000,62461,80.04959626,61,4.127134385,Mild,0,0,Uttar Pradesh
No,nat-met-sto-sto,Natural,Meteorological,Storm,Storm (General),,16.1587846,74.888862,,2018,6,8,2018,6,12,61,0,1300000,37500,0,,,200000,245398,50000,62461,80.04959626,61,4.127134385,Mild,0,0,West Bengal
No,nat-met-sto-sto,Natural,Meteorological,Storm,Storm (General),,15.416692,75.6815801,,2018,6,8,2018,6,12,61,0,1300000,37500,0,,,200000,245398,50000,62461,80.04959626,61,4.127134385,Mild,0,0,Assam
No,nat-met-sto-sto,Natural,Meteorological,Storm,Storm (General),,23.9408,91.9882,,2018,6,8,2018,6,12,61,0,1300000,37500,0,,,200000,245398,50000,62461,80.04959626,61,4.127134385,Mild,0,0,Tripura
No,nat-met-sto-sto,Natural,Meteorological,Storm,Storm (General),,10.3528744,76.5120396,,2018,6,8,2018,6,12,61,0,1300000,37500,0,,,200000,245398,50000,62461,80.04959626,61,4.127134385,Mild,0,0,Manipur
No,nat-met-sto-sto,Natural,Meteorological,Storm,Storm (General),,23.1645,92.9376,,2018,6,8,2018,6,12,61,0,1300000,37500,0,,,200000,245398,50000,62461,80.04959626,61,4.127134385,Mild,0,0,Mizoram
No,nat-bio-epi-bac,Natural,Biological,Epidemic,Bacterial disease,,26.6620387,91.3410716,,2005,5,18,2005,6,21,48,0,405,37500,405,,,200000,245398,300000,457449,62.25647853,453,6.118097198,Mild,0,0,Delhi
No,nat-bio-epi-bac,Natural,Biological,Epidemic,Bacterial disease,,29.0588,76.0856,,2005,5,18,2005,6,21,48,0,405,37500,405,,,200000,245398,300000,457449,62.25647853,453,6.118097198,Mild,0,0,Haryana
No,nat-bio-epi-bac,Natural,Biological,Epidemic,Bacterial disease,,30.7333,76.7794,,2005,5,18,2005,6,21,48,0,405,37500,405,,,200000,245398,300000,457449,62.25647853,453,6.118097198,Mild,0,0,Chandigarh
No,nat-bio-epi-bac,Natural,Biological,Epidemic,Bacterial disease,,28.656081,77.2407959,,2005,5,18,2005,6,21,48,0,405,37500,405,,,200000,245398,300000,457449,62.25647853,453,6.118097198,Mild,0,0,Uttar Pradesh
No,nat-bio-epi-bac,Natural,Biological,Epidemic,Bacterial disease,,22.9704017,80.77351,,2005,5,18,2005,6,21,48,0,405,37500,405,,,200000,245398,300000,457449,62.25647853,453,6.118097198,Mild,0,0,Uttaranchal
No,nat-hyd-flo-flo,Natural,Hydrological,Flood,Flood (General),Monsoonal rain,25.4509975,82.8635994,,2018,6,22,2018,7,3,52,0,1300000,37500,0,,,200000,245398,300000,457449,80.04959626,52,3.970291914,Mild,0,0,Assam
No,nat-hyd-flo-flo,Natural,Hydrological,Flood,Flood (General),Monsoonal rain,19.037232,72.906763,,2018,6,22,2018,7,3,52,0,1300000,37500,0,,,200000,245398,300000,457449,80.04959626,52,3.970291914,Mild,0,0,Maharashtra
No,nat-hyd-flo-flo,Natural,Hydrological,Flood,Flood (General),Monsoonal rain,20,78,,2018,6,22,2018,7,3,52,0,1300000,37500,0,,,200000,245398,300000,457449,80.04959626,52,3.970291914,Mild,0,0,Gujarat
No,nat-bio-epi-vir,Natural,Biological,Epidemic,Viral disease,,26.8467,80.9462,,2005,7,29,2005,9,13,296,0,939,37500,939,,,200000,245398,300000,457449,62.25647853,1235,7.119635638,Moderate,1,0,Uttar Pradesh
No,nat-bio-epi-vir,Natural,Biological,Epidemic,Viral disease,,26.2604732,82.2380532,,2005,7,29,2005,9,13,296,0,939,37500,939,,,200000,245398,300000,457449,62.25647853,1235,7.119635638,Moderate,1,0,Bihar
No,nat-bio-epi-bac,Natural,Biological,Epidemic,Bacterial disease,,27.5026748,80.8335139,,2005,8,28,2005,8,30,110,0,1743,37500,1743,,,200000,245398,300000,457449,62.25647853,1853,7.525100746,Moderate,1,0,Maharashtra state
No,nat-bio-epi-vir,Natural,Biological,Epidemic,Viral disease,,26.9013312,81.2151601,,2005,7,1,2005,11,10,296,0,1145,37500,1145,,,200000,245398,300000,457449,62.25647853,1441,7.273786318,Moderate,1,0,Uttar Pradesh and Bihar states
No,nat-bio-epi-vir,Natural,Biological,Epidemic,Viral disease,,26.7807986,82.1486589,,2005,12,15,2006,4,17,0,0,153324,37500,153324,,,200000,245398,300000,457449,62.25647853,153324,11.94031513,Moderate,1,0,Andhra Prasdesh
No,nat-bio-epi-vir,Natural,Biological,Epidemic,Viral disease,,26.6677977,83.3642334,,2005,12,15,2006,4,17,0,0,153324,37500,153324,,,200000,245398,300000,457449,62.25647853,153324,11.94031513,Moderate,1,0,Maharashtra
No,nat-bio-epi-vir,Natural,Biological,Epidemic,Viral disease,,26.8387084,82.5350919,,2005,12,15,2006,4,17,0,0,153324,37500,153324,,,200000,245398,300000,457449,62.25647853,153324,11.94031513,Moderate,1,0,Karnataka states
No,nat-hyd-flo-flo,Natural,Hydrological,Flood,Flood (General),Monsoon rain,27.7343823,81.47654,,2019,10,19,2019,10,23,12,0,27500,37500,27500,,,200000,245398,300000,457449,81.50030941,27512,10.2224139,Moderate,1,0,Belagavi
No,nat-hyd-flo-flo,Natural,Hydrological,Flood,Flood (General),Monsoon rain,15.416692,75.6815801,,2019,10,19,2019,10,23,12,0,27500,37500,27500,,,200000,245398,300000,457449,81.50030941,27512,10.2224139,Moderate,1,0,Gadag
No,nat-hyd-flo-flo,Natural,Hydrological,Flood,Flood (General),Monsoon rain,15.3173,75.7139,,2019,10,19,2019,10,23,12,0,27500,37500,27500,,,200000,245398,300000,457449,81.50030941,27512,10.2224139,Moderate,1,0,Koppal districts (Karnataka)
No,nat-hyd-flo-flo,Natural,Hydrological,Flood,Flood (General),Monsoon rain,10.8505,76.2711,,2019,10,19,2019,10,23,12,0,27500,37500,27500,,,200000,245398,300000,457449,81.50030941,27512,10.2224139,Moderate,1,0,Kerala
No,nat-hyd-flo-flo,Natural,Hydrological,Flood,Flood (General),Monsoon rain,11.1271,78.6569,,2019,10,19,2019,10,23,12,0,27500,37500,27500,,,200000,245398,300000,457449,81.50030941,27512,10.2224139,Moderate,1,0,Tamil Nadu states
No,nat-bio-epi-vir,Natural,Biological,Epidemic,Viral disease,,26.8467,80.9462,,2009,1,15,2009,10,17,311,0,1521,37500,1521,,,200000,245398,300000,457449,68.39164268,1832,7.513709248,Moderate,1,0,Uttar Pradesh
No,nat-met-sto-hai,Natural,Meteorological,Storm,Hail,,26.6620387,91.3410716,,2010,4,10,2010,4,10,28,0,1300000,5000,5000,,,200000,245398,300000,457449,69.51329329,5028,8.522976436,Moderate,1,0,Mushalpur
No,nat-met-sto-hai,Natural,Meteorological,Storm,Hail,,24.6637,80.9154547,,2010,4,10,2010,4,10,28,0,1300000,5000,5000,,,200000,245398,300000,457449,69.51329329,5028,8.522976436,Moderate,1,0,Baksa towns (Nalbari district
No,nat-hyd-mmw-lan,Natural,Hydrological,Mass movement (wet),Landslide (wet),,20.952407,72.9323831,,2009,9,3,2009,9,3,10,0,1300000,37500,0,,,200000,245398,300000,457449,68.39164268,10,2.397895273,Mild,0,0,Lal
No,nat-hyd-mmw-lan,Natural,Hydrological,Mass movement (wet),Landslide (wet),,21.2094892,72.8317058,,2009,9,3,2009,9,3,10,0,1300000,37500,0,,,200000,245398,300000,457449,68.39164268,10,2.397895273,Mild,0,0,Bahadur
No,nat-hyd-mmw-lan,Natural,Hydrological,Mass movement (wet),Landslide (wet),,23.8688506,73.013784,,2009,9,3,2009,9,3,10,0,1300000,37500,0,,,200000,245398,300000,457449,68.39164268,10,2.397895273,Mild,0,0,Shastri
No,nat-hyd-mmw-lan,Natural,Hydrological,Mass movement (wet),Landslide (wet),,20.9072148,70.3657008,,2009,9,3,2009,9,3,10,0,1300000,37500,0,,,200000,245398,300000,457449,68.39164268,10,2.397895273,Mild,0,0,Nagar slums 
No,nat-hyd-flo-riv,Natural,Hydrological,Flood,Riverine flood,Monsoon rains,24.578721,73.6862571,"Ganges, Ghagra, Kuano, Saryu, Sharda",2013,7,9,2013,7,10,174,0,500000,37500,500000,,,200000,245398,2000,2693,74.26372907,500174,13.12271332,Moderate,1,0,Sultanpur
No,nat-hyd-flo-riv,Natural,Hydrological,Flood,Riverine flood,Monsoon rains,24.8114047,72.8300257,"Ganges, Ghagra, Kuano, Saryu, Sharda",2013,7,9,2013,7,10,174,0,500000,37500,500000,,,200000,245398,2000,2693,74.26372907,500174,13.12271332,Moderate,1,0,Sitapur
No,nat-hyd-flo-riv,Natural,Hydrological,Flood,Riverine flood,Monsoon rains,25.7890842,73.3286498,"Ganges, Ghagra, Kuano, Saryu, Sharda",2013,7,9,2013,7,10,174,0,500000,37500,500000,,,200000,245398,2000,2693,74.26372907,500174,13.12271332,Moderate,1,0,Rae Bareli
No,nat-hyd-flo-riv,Natural,Hydrological,Flood,Riverine flood,Monsoon rains,22.5753205,88.3600377,"Ganges, Ghagra, Kuano, Saryu, Sharda",2013,7,9,2013,7,10,174,0,500000,37500,500000,,,200000,245398,2000,2693,74.26372907,500174,13.12271332,Moderate,1,0,Bara Banki
No,nat-hyd-flo-riv,Natural,Hydrological,Flood,Riverine flood,Monsoon rains,26.1482548,85.3316097,"Ganges, Ghagra, Kuano, Saryu, Sharda",2013,7,9,2013,7,10,174,0,500000,37500,500000,,,200000,245398,2000,2693,74.26372907,500174,13.12271332,Moderate,1,0,Faizabad
No,nat-hyd-flo-riv,Natural,Hydrological,Flood,Riverine flood,Monsoon rains,25.7491703,85.3972164,"Ganges, Ghagra, Kuano, Saryu, Sharda",2013,7,9,2013,7,10,174,0,500000,37500,500000,,,200000,245398,2000,2693,74.26372907,500174,13.12271332,Moderate,1,0,Gorakhpur
No,nat-hyd-flo-riv,Natural,Hydrological,Flood,Riverine flood,Monsoon rains,26.4934234,85.2717561,"Ganges, Ghagra, Kuano, Saryu, Sharda",2013,7,9,2013,7,10,174,0,500000,37500,500000,,,200000,245398,2000,2693,74.26372907,500174,13.12271332,Moderate,1,0,Basti
No,nat-hyd-flo-riv,Natural,Hydrological,Flood,Riverine flood,Monsoon rains,26.7438272,83.9162322,"Ganges, Ghagra, Kuano, Saryu, Sharda",2013,7,9,2013,7,10,174,0,500000,37500,500000,,,200000,245398,2000,2693,74.26372907,500174,13.12271332,Moderate,1,0,Kushinagar
No,nat-hyd-flo-riv,Natural,Hydrological,Flood,Riverine flood,Monsoon rains,27.7343823,81.47654,"Ganges, Ghagra, Kuano, Saryu, Sharda",2013,7,9,2013,7,10,174,0,500000,37500,500000,,,200000,245398,2000,2693,74.26372907,500174,13.12271332,Moderate,1,0,Bahraich
No,nat-hyd-flo-riv,Natural,Hydrological,Flood,Riverine flood,Monsoon rains,27.1103723,81.9238906,"Ganges, Ghagra, Kuano, Saryu, Sharda",2013,7,9,2013,7,10,174,0,500000,37500,500000,,,200000,245398,2000,2693,74.26372907,500174,13.12271332,Moderate,1,0,Gonda
No,nat-hyd-flo-riv,Natural,Hydrological,Flood,Riverine flood,Monsoon rains,21.0387955,75.0545539,"Ganges, Ghagra, Kuano, Saryu, Sharda",2013,7,9,2013,7,10,174,0,500000,37500,500000,,,200000,245398,2000,2693,74.26372907,500174,13.12271332,Moderate,1,0,Shravasti districts (Uttar Pradesh province)
No,nat-geo-ear-gro,Natural,Geophysical,Earthquake,Ground movement,,21.9769779,76.5675344,,2021,4,28,2021,4,28,2,10,3000,37500,3010,,,200000,245398,300000,457449,86.38165694,3022,8.014004995,Moderate,1,0,northern Assam State
No,nat-hyd-flo-fla,Natural,Hydrological,Flood,Flash flood,Heavy rains,23.8083076,78.758254,Jhelum river,2015,3,20,2015,3,31,44,25,1300000,2097,2122,,,200000,245398,76000,100585,75.55797677,2191,7.692569648,Moderate,1,0,Chadoora village (72811 district
No,nat-hyd-flo-riv,Natural,Hydrological,Flood,Riverine flood,Monsoonal rain,23.2675909,78.1727134,,2006,5,25,2006,6,2,32,0,10800,37500,10800,,,200000,245398,300000,457449,64.26483222,10832,9.29035231,Moderate,1,0,Kerala province
No,nat-hyd-mmw-lan,Natural,Hydrological,Mass movement (wet),Landslide (wet),,24.6637,80.9154547,,2017,7,11,2017,7,11,22,0,1300000,37500,0,,,200000,245398,300000,457449,78.14100176,22,3.135494216,Mild,0,0,Laptap Village
No,nat-hyd-mmw-lan,Natural,Hydrological,Mass movement (wet),Landslide (wet),,22.5786572,75.2258637,,2017,7,11,2017,7,11,22,0,1300000,37500,0,,,200000,245398,300000,457449,78.14100176,22,3.135494216,Mild,0,0,Papumpare district (Arunachal Pradesh)
No,nat-hyd-flo-flo,Natural,Hydrological,Flood,Flood (General),Monsoon,23.5022201,74.9551534,Banas river,2017,6,15,2017,8,17,284,0,520000,37500,520000,,,200000,245398,250000,319934,78.14100176,520284,13.16213202,Moderate,1,0,Banaskantha
No,nat-hyd-flo-flo,Natural,Hydrological,Flood,Flood (General),Monsoon,20.4321957,73.1409893,Banas river,2017,6,15,2017,8,17,284,0,520000,37500,520000,,,200000,245398,250000,319934,78.14100176,520284,13.16213202,Moderate,1,0,Valsad
No,nat-hyd-flo-flo,Natural,Hydrological,Flood,Flood (General),Monsoon,20.952407,72.9323831,Banas river,2017,6,15,2017,8,17,284,0,520000,37500,520000,,,200000,245398,250000,319934,78.14100176,520284,13.16213202,Moderate,1,0,Navsari
No,nat-hyd-flo-flo,Natural,Hydrological,Flood,Flood (General),Monsoon,26.3533632,91.3983662,Banas river,2017,6,15,2017,8,17,284,0,520000,37500,520000,,,200000,245398,250000,319934,78.14100176,520284,13.16213202,Moderate,1,0,Surat
No,nat-hyd-flo-flo,Natural,Hydrological,Flood,Flood (General),Monsoon,26.6275689,91.3388551,Banas river,2017,6,15,2017,8,17,284,0,520000,37500,520000,,,200000,245398,250000,319934,78.14100176,520284,13.16213202,Moderate,1,0,Sabarkantha
No,nat-hyd-flo-flo,Natural,Hydrological,Flood,Flood (General),Monsoon,27.1763356,94.1992932,Banas river,2017,6,15,2017,8,17,284,0,520000,37500,520000,,,200000,245398,250000,319934,78.14100176,520284,13.16213202,Moderate,1,0,Patan (Gujarat)
No,nat-hyd-flo-flo,Natural,Hydrological,Flood,Flood (General),Monsoon,26.5406805,91.168727,Banas river,2017,6,15,2017,8,17,284,0,520000,37500,520000,,,200000,245398,250000,319934,78.14100176,520284,13.16213202,Moderate,1,0,Barmer
No,nat-hyd-flo-flo,Natural,Hydrological,Flood,Flood (General),Monsoon,25.2093483,72.3178889,Banas river,2017,6,15,2017,8,17,284,0,520000,37500,520000,,,200000,245398,250000,319934,78.14100176,520284,13.16213202,Moderate,1,0,Jalore
No,nat-hyd-flo-flo,Natural,Hydrological,Flood,Flood (General),Monsoon,27.6016108,88.4550204,Banas river,2017,6,15,2017,8,17,284,0,520000,37500,520000,,,200000,245398,250000,319934,78.14100176,520284,13.16213202,Moderate,1,0,Udaipur
No,nat-hyd-flo-flo,Natural,Hydrological,Flood,Flood (General),Monsoon,30.0417376,79.089691,Banas river,2017,6,15,2017,8,17,284,0,520000,37500,520000,,,200000,245398,250000,319934,78.14100176,520284,13.16213202,Moderate,1,0,Sirohi
No,nat-hyd-flo-flo,Natural,Hydrological,Flood,Flood (General),Monsoon,27.0238,74.2179,Banas river,2017,6,15,2017,8,17,284,0,520000,37500,520000,,,200000,245398,250000,319934,78.14100176,520284,13.16213202,Moderate,1,0,Pali (Rajasthan)
No,nat-hyd-flo-flo,Natural,Hydrological,Flood,Flood (General),Monsoon,21.6637359,81.8406351,Banas river,2017,6,15,2017,8,17,284,0,520000,37500,520000,,,200000,245398,250000,319934,78.14100176,520284,13.16213202,Moderate,1,0,Kolkata (West Bengal)
No,nat-bio-epi-vir,Natural,Biological,Epidemic,Viral disease,,30.9293211,75.5004841,,2019,1,1,2019,6,17,121,418,1300000,37500,418,,,200000,245398,300000,457449,81.50030941,957,6.864847778,Mild,0,0,Muzaffarpur
No,nat-bio-epi-vir,Natural,Biological,Epidemic,Viral disease,,14.9562045,75.7896741,,2019,1,1,2019,6,17,121,418,1300000,37500,418,,,200000,245398,300000,457449,81.50030941,957,6.864847778,Mild,0,0,Vaishali
No,nat-bio-epi-vir,Natural,Biological,Epidemic,Viral disease,,26.4934234,85.2717561,,2019,1,1,2019,6,17,121,418,1300000,37500,418,,,200000,245398,300000,457449,81.50030941,957,6.864847778,Mild,0,0,Sheohar
No,nat-bio-epi-vir,Natural,Biological,Epidemic,Viral disease,,25.0961,85.3131,,2019,1,1,2019,6,17,121,418,1300000,37500,418,,,200000,245398,300000,457449,81.50030941,957,6.864847778,Mild,0,0,East Champaran districts (Bihar)
No,nat-bio-epi-vir,Natural,Biological,Epidemic,Viral disease,,25.1142028,79.5337096,,2019,10,15,2019,10,17,0,900,1300000,37500,900,,,200000,245398,300000,457449,81.50030941,1800,7.496097345,Moderate,1,0,Rajendranagar area (Bihar)
No,nat-met-sto-lig,Natural,Meteorological,Storm,Lightning/Thunderstorms,,20.6095183,83.1673029,,2010,8,25,2010,8,25,25,0,1300000,37500,0,,,200000,245398,300000,457449,69.51329329,25,3.258096538,Mild,0,0,Bihar
No,nat-met-sto-lig,Natural,Meteorological,Storm,Lightning/Thunderstorms,,21.102538,84.9536825,,2010,8,25,2010,8,25,25,0,1300000,37500,0,,,200000,245398,300000,457449,69.51329329,25,3.258096538,Mild,0,0,Jharkhand provinces
No,nat-met-ext-hea,Natural,Meteorological,Extreme temperature,Heat wave,,20.6407463,83.9969704,,2022,3,15,2022,4,17,25,0,1300000,37500,0,,,200000,245398,300000,457449,93.29460735,25,3.258096538,Mild,0,0,Maharashtra State
No,nat-met-ext-hea,Natural,Meteorological,Extreme temperature,Heat wave,,20.8351494,85.6022305,,2022,3,15,2022,4,17,25,0,1300000,37500,0,,,200000,245398,300000,457449,93.29460735,25,3.258096538,Mild,0,0,West Rajasthan
No,nat-met-sto-sev,Natural,Meteorological,Storm,Severe weather,,19.1966026,84.1930634,,2023,3,17,2023,3,21,16,14,1300000,37500,14,,,200000,245398,300000,457449,97.13499264,44,3.80666249,Mild,0,0,Khandwa
No,nat-met-sto-sev,Natural,Meteorological,Storm,Severe weather,,20.2593872,86.1660878,,2023,3,17,2023,3,21,16,14,1300000,37500,14,,,200000,245398,300000,457449,97.13499264,44,3.80666249,Mild,0,0,Sagar
No,nat-met-sto-sev,Natural,Meteorological,Storm,Severe weather,,24.6954445,80.7770348,,2023,3,17,2023,3,21,16,14,1300000,37500,14,,,200000,245398,300000,457449,97.13499264,44,3.80666249,Mild,0,0,Satna
No,nat-met-sto-sev,Natural,Meteorological,Storm,Severe weather,,27.3324507,88.6140364,,2023,3,17,2023,3,21,16,14,1300000,37500,14,,,200000,245398,300000,457449,97.13499264,44,3.80666249,Mild,0,0,Raisen
No,nat-met-sto-sev,Natural,Meteorological,Storm,Severe weather,,24.6637,80.9154547,,2023,3,17,2023,3,21,16,14,1300000,37500,14,,,200000,245398,300000,457449,97.13499264,44,3.80666249,Mild,0,0,Narmadapura
No,nat-met-sto-sev,Natural,Meteorological,Storm,Severe weather,,15.9240905,80.1863809,,2023,3,17,2023,3,21,16,14,1300000,37500,14,,,200000,245398,300000,457449,97.13499264,44,3.80666249,Mild,0,0,Dhar
No,nat-met-sto-sev,Natural,Meteorological,Storm,Severe weather,,17.8495919,79.1151663,,2023,3,17,2023,3,21,16,14,1300000,37500,14,,,200000,245398,300000,457449,97.13499264,44,3.80666249,Mild,0,0,Ratlam
No,nat-met-sto-sev,Natural,Meteorological,Storm,Severe weather,,22.9734,78.6569,,2023,3,17,2023,3,21,16,14,1300000,37500,14,,,200000,245398,300000,457449,97.13499264,44,3.80666249,Mild,0,0,Ashok Nagar and Damoh (Madhya Pradesh State)
No,nat-met-ext-hea,Natural,Meteorological,Extreme temperature,Heat wave,,23.5981374,72.3800553,,2023,4,15,2023,4,17,11,330,1300000,37500,330,,,200000,245398,300000,457449,97.13499264,671,6.510258341,Mild,0,0,Maharashtra state
No,nat-met-sto-tro,Natural,Meteorological,Storm,Tropical cyclone,,24.1909849,92.0460483,,2023,5,14,2023,5,14,0,0,1000,37500,1000,,,200000,245398,300000,457449,97.13499264,1000,6.908754779,Mild,0,0,Mizoram
No,nat-met-sto-tro,Natural,Meteorological,Storm,Tropical cyclone,,23.6658005,91.3200275,,2023,5,14,2023,5,14,0,0,1000,37500,1000,,,200000,245398,300000,457449,97.13499264,1000,6.908754779,Mild,0,0,Tripura
No,nat-met-sto-tro,Natural,Meteorological,Storm,Tropical cyclone,,23.8253158,91.9732227,,2023,5,14,2023,5,14,0,0,1000,37500,1000,,,200000,245398,300000,457449,97.13499264,1000,6.908754779,Mild,0,0,Manipur states
No,nat-met-ext-hea,Natural,Meteorological,Extreme temperature,Heat wave,,10.9104151,78.9931429,,2023,4,15,2023,6,17,179,460,1300000,37500,460,,,200000,245398,300000,457449,97.13499264,1099,7.003065459,Moderate,1,0,Uttar Pradesh
No,nat-met-ext-hea,Natural,Meteorological,Extreme temperature,Heat wave,,10.3973043,76.2634227,,2023,4,15,2023,6,17,179,460,1300000,37500,460,,,200000,245398,300000,457449,97.13499264,1099,7.003065459,Moderate,1,0,Bihar
No,nat-met-ext-hea,Natural,Meteorological,Extreme temperature,Heat wave,,23.9408,91.9882,,2023,4,15,2023,6,17,179,460,1300000,37500,460,,,200000,245398,300000,457449,97.13499264,1099,7.003065459,Moderate,1,0,Tripura
No,nat-met-ext-hea,Natural,Meteorological,Extreme temperature,Heat wave,,20.9517,85.0985,,2023,4,15,2023,6,17,179,460,1300000,37500,460,,,200000,245398,300000,457449,97.13499264,1099,7.003065459,Moderate,1,0,Odisha
No,nat-hyd-flo-flo,Natural,Hydrological,Flood,Flood (General),Heavy rains,24.7590802,93.8617365,,2023,6,14,2023,6,23,0,0,500000,37500,500000,,,200000,245398,300000,457449,97.13499264,500000,13.12236538,Moderate,1,0,Nalbari
No,nat-hyd-flo-flo,Natural,Hydrological,Flood,Flood (General),Heavy rains,24.8328129,94.0166864,,2023,6,14,2023,6,23,0,0,500000,37500,500000,,,200000,245398,300000,457449,97.13499264,500000,13.12236538,Moderate,1,0,Baksa
No,nat-hyd-flo-flo,Natural,Hydrological,Flood,Flood (General),Heavy rains,24.4974827,93.9835543,,2023,6,14,2023,6,23,0,0,500000,37500,500000,,,200000,245398,300000,457449,97.13499264,500000,13.12236538,Moderate,1,0,Lakhimpur
No,nat-hyd-flo-flo,Natural,Hydrological,Flood,Flood (General),Heavy rains,24.3626155,94.2594997,,2023,6,14,2023,6,23,0,0,500000,37500,500000,,,200000,245398,300000,457449,97.13499264,500000,13.12236538,Moderate,1,0,Bajali
No,nat-hyd-flo-flo,Natural,Hydrological,Flood,Flood (General),Heavy rains,25.1527725,93.9713691,,2023,6,14,2023,6,23,0,0,500000,37500,500000,,,200000,245398,300000,457449,97.13499264,500000,13.12236538,Moderate,1,0,Barpet distrcits (Assam)
No,nat-hyd-flo-flo,Natural,Hydrological,Flood,Flood (General),Heavy rains,24.8590605,93.6327463,,2023,6,14,2023,6,23,0,0,500000,37500,500000,,,200000,245398,300000,457449,97.13499264,500000,13.12236538,Moderate,1,0,Sikkim
No,nat-hyd-flo-flo,Natural,Hydrological,Flood,Flood (General),Monsoon rains,31.1048,77.1665,,2023,6,25,2023,9,7,1529,0,10250000,37500,10250000,,,200000,245398,300000,457449,97.13499264,10251529,16.14293752,High,2,0,Himachal Pradesh
No,nat-hyd-flo-flo,Natural,Hydrological,Flood,Flood (General),Monsoon rains,19.054999,72.8692035,,2023,6,25,2023,9,7,1529,0,10250000,37500,10250000,,,200000,245398,300000,457449,97.13499264,10251529,16.14293752,High,2,0,Uttarakhand
No,nat-hyd-flo-flo,Natural,Hydrological,Flood,Flood (General),Monsoon rains,28.7041,77.1025,,2023,6,25,2023,9,7,1529,0,10250000,37500,10250000,,,200000,245398,300000,457449,97.13499264,10251529,16.14293752,High,2,0,Delhi
No,nat-hyd-flo-flo,Natural,Hydrological,Flood,Flood (General),Monsoon rains,22.9964948,87.6855882,,2023,6,25,2023,9,7,1529,0,10250000,37500,10250000,,,200000,245398,300000,457449,97.13499264,10251529,16.14293752,High,2,0,Bihar
No,nat-hyd-flo-flo,Natural,Hydrological,Flood,Flood (General),Monsoon rains,24.6637,80.9154547,,2023,6,25,2023,9,7,1529,0,10250000,37500,10250000,,,200000,245398,300000,457449,97.13499264,10251529,16.14293752,High,2,0,Madhya Pradesh
No,nat-hyd-flo-flo,Natural,Hydrological,Flood,Flood (General),Monsoon rains,19.7515,75.7139,,2023,6,25,2023,9,7,1529,0,10250000,37500,10250000,,,200000,245398,300000,457449,97.13499264,10251529,16.14293752,High,2,0,Maharashtra
No,nat-hyd-flo-flo,Natural,Hydrological,Flood,Flood (General),Monsoon rains,25.75,81.75,,2023,6,25,2023,9,7,1529,0,10250000,37500,10250000,,,200000,245398,300000,457449,97.13499264,10251529,16.14293752,High,2,0,Chhattisgarh
No,nat-hyd-flo-flo,Natural,Hydrological,Flood,Flood (General),Monsoon rains,25.125695,83.2494601,,2023,6,25,2023,9,7,1529,0,10250000,37500,10250000,,,200000,245398,300000,457449,97.13499264,10251529,16.14293752,High,2,0,Gujarat
No,nat-hyd-flo-flo,Natural,Hydrological,Flood,Flood (General),Monsoon rains,27.2093072,79.0625369,,2023,6,25,2023,9,7,1529,0,10250000,37500,10250000,,,200000,245398,300000,457449,97.13499264,10251529,16.14293752,High,2,0,Punjab
No,nat-hyd-flo-flo,Natural,Hydrological,Flood,Flood (General),Monsoon rains,25.4381302,81.8338005,,2023,6,25,2023,9,7,1529,0,10250000,37500,10250000,,,200000,245398,300000,457449,97.13499264,10251529,16.14293752,High,2,0,Karnataka
No,nat-hyd-flo-flo,Natural,Hydrological,Flood,Flood (General),Monsoon rains,26.6558215,79.5160757,,2023,6,25,2023,9,7,1529,0,10250000,37500,10250000,,,200000,245398,300000,457449,97.13499264,10251529,16.14293752,High,2,0,Assam
No,nat-hyd-flo-flo,Natural,Hydrological,Flood,Flood (General),Monsoonal rains,26.4239911,83.7638578,,2023,7,27,2023,7,31,23,0,1300000,37500,0,,,200000,245398,300000,457449,97.13499264,23,3.17805383,Mild,0,0,Mulugu District (western Telangana)
No,nat-hyd-mmw-lan,Natural,Hydrological,Mass movement (wet),Landslide (wet),,27.5724324,78.1116209,,2023,8,23,2023,8,24,10,0,605,37500,605,,,200000,245398,300000,457449,97.13499264,615,6.423246964,Mild,0,0,Himachal Pradesh and Uttarakhand states
No,nat-met-sto-lig,Natural,Meteorological,Storm,Lightning/Thunderstorms,,25.1142028,79.5337096,,2023,9,2,2023,9,6,12,14,1060,37500,1074,,,200000,245398,300000,457449,97.13499264,1100,7.003974137,Moderate,1,0,Khurda
No,nat-met-sto-lig,Natural,Meteorological,Storm,Lightning/Thunderstorms,,11.4701711,76.1506761,,2023,9,2,2023,9,6,12,14,1060,37500,1074,,,200000,245398,300000,457449,97.13499264,1100,7.003974137,Moderate,1,0,Balangir
No,nat-met-sto-lig,Natural,Meteorological,Storm,Lightning/Thunderstorms,,11.4992319,76.1598711,,2023,9,2,2023,9,6,12,14,1060,37500,1074,,,200000,245398,300000,457449,97.13499264,1100,7.003974137,Moderate,1,0,Angul
No,nat-met-sto-lig,Natural,Meteorological,Storm,Lightning/Thunderstorms,,11.4987192,76.1756093,,2023,9,2,2023,9,6,12,14,1060,37500,1074,,,200000,245398,300000,457449,97.13499264,1100,7.003974137,Moderate,1,0,Boudh
No,nat-met-sto-lig,Natural,Meteorological,Storm,Lightning/Thunderstorms,,20.8351494,85.6022305,,2023,9,2,2023,9,6,12,14,1060,37500,1074,,,200000,245398,300000,457449,97.13499264,1100,7.003974137,Moderate,1,0,Dhenkanal
No,nat-met-sto-lig,Natural,Meteorological,Storm,Lightning/Thunderstorms,,10.4692691,76.0818239,,2023,9,2,2023,9,6,12,14,1060,37500,1074,,,200000,245398,300000,457449,97.13499264,1100,7.003974137,Moderate,1,0,Gajapati
No,nat-met-sto-lig,Natural,Meteorological,Storm,Lightning/Thunderstorms,,31.6516617,77.0092542,,2023,9,2,2023,9,6,12,14,1060,37500,1074,,,200000,245398,300000,457449,97.13499264,1100,7.003974137,Moderate,1,0,Jagatsinghpur
No,nat-met-sto-lig,Natural,Meteorological,Storm,Lightning/Thunderstorms,,31.9578974,77.1089232,,2023,9,2,2023,9,6,12,14,1060,37500,1074,,,200000,245398,300000,457449,97.13499264,1100,7.003974137,Moderate,1,0,and Puri (Odisha State)
No,nat-cli-glo-glo,Natural,Climatological,Glacial lake outburst flood,Glacial lake outburst flood,,27.533,88.5122,Teesta river; Lhonak lake,2023,10,5,2023,10,5,178,0,88400,37500,88400,,,200000,245398,300000,457449,97.13499264,88578,11.39165009,Moderate,1,0,Sikkim state Gangtok
No,nat-cli-glo-glo,Natural,Climatological,Glacial lake outburst flood,Glacial lake outburst flood,,24.6637,80.9154547,Teesta river; Lhonak lake,2023,10,5,2023,10,5,178,0,88400,37500,88400,,,200000,245398,300000,457449,97.13499264,88578,11.39165009,Moderate,1,0,Mangan and Pakyong (Bengal state)
No,nat-met-sto-tro,Natural,Meteorological,Storm,Tropical cyclone,,15.9240905,80.1863809,,2023,12,5,2023,12,6,20,0,4390000,37500,4390000,,,200000,245398,125000,128687,97.13499264,4390020,15.29484457,High,2,0,Andra Pradesh
No,nat-met-sto-tro,Natural,Meteorological,Storm,Tropical cyclone,,27.3257345,88.6983549,,2023,12,5,2023,12,6,20,0,4390000,37500,4390000,,,200000,245398,125000,128687,97.13499264,4390020,15.29484457,High,2,0,Telangana
No,nat-met-sto-tro,Natural,Meteorological,Storm,Tropical cyclone,,27.3285783,88.612239,,2023,12,5,2023,12,6,20,0,4390000,37500,4390000,,,200000,245398,125000,128687,97.13499264,4390020,15.29484457,High,2,0,Tamil Nadu States
No,nat-met-sto-sev,Natural,Meteorological,Storm,Severe weather,,22.2587,71.1924,,2023,11,26,2023,11,27,24,25,1300000,37500,25,,,200000,245398,300000,457449,97.13499264,74,4.317488114,Mild,0,0,Gujarat state
No,nat-met-sto-sev,Natural,Meteorological,Storm,Severe weather,,25.5379432,91.2999102,,2024,3,27,2024,3,27,4,7,22810,115,22932,,,200000,245398,300000,457449,100,22943,10.04081174,Moderate,1,0,Unakoti
No,nat-met-sto-sev,Natural,Meteorological,Storm,Severe weather,,23.6658005,91.3200275,,2024,3,27,2024,3,27,4,7,22810,115,22932,,,200000,245398,300000,457449,100,22943,10.04081174,Moderate,1,0,Sepahijala
No,nat-met-sto-sev,Natural,Meteorological,Storm,Severe weather,,13.024189,77.5851756,,2024,3,27,2024,3,27,4,7,22810,115,22932,,,200000,245398,300000,457449,100,22943,10.04081174,Moderate,1,0,Dhalai
No,nat-met-sto-sev,Natural,Meteorological,Storm,Severe weather,,11.4126769,76.7030504,,2024,3,27,2024,3,27,4,7,22810,115,22932,,,200000,245398,300000,457449,100,22943,10.04081174,Moderate,1,0,South
No,nat-met-sto-sev,Natural,Meteorological,Storm,Severe weather,,12.9071753,79.1309695,,2024,3,27,2024,3,27,4,7,22810,115,22932,,,200000,245398,300000,457449,100,22943,10.04081174,Moderate,1,0,West
No,nat-met-sto-sev,Natural,Meteorological,Storm,Severe weather,,23.9408,91.9882,,2024,3,27,2024,3,27,4,7,22810,115,22932,,,200000,245398,300000,457449,100,22943,10.04081174,Moderate,1,0,Khowai and Gomati Districts (Tripura state)
No,nat-met-sto-sev,Natural,Meteorological,Storm,Severe weather,,30.5,79.5,,2024,3,27,2024,3,27,4,7,22810,115,22932,,,200000,245398,300000,457449,100,22943,10.04081174,Moderate,1,0,Una District (Himachal Pradesh State)
No,nat-met-ext-hea,Natural,Meteorological,Extreme temperature,Heat wave,,19.6090068,84.7080633,,2024,3,15,2024,6,17,733,25000,1300000,37500,25000,,,200000,245398,300000,457449,100,50733,10.83435158,Moderate,1,0,New Delhi
No,nat-met-ext-hea,Natural,Meteorological,Extreme temperature,Heat wave,,19.8076083,85.8252538,,2024,3,15,2024,6,17,733,25000,1300000,37500,25000,,,200000,245398,300000,457449,100,50733,10.83435158,Moderate,1,0,Rajasthan
No,nat-met-ext-hea,Natural,Meteorological,Extreme temperature,Heat wave,,25.0961,85.3131,,2024,3,15,2024,6,17,733,25000,1300000,37500,25000,,,200000,245398,300000,457449,100,50733,10.83435158,Moderate,1,0,Bihar
No,nat-met-ext-hea,Natural,Meteorological,Extreme temperature,Heat wave,,22.8532503,72.9953586,,2024,3,15,2024,6,17,733,25000,1300000,37500,25000,,,200000,245398,300000,457449,100,50733,10.83435158,Moderate,1,0,Gujarat
No,nat-met-ext-hea,Natural,Meteorological,Extreme temperature,Heat wave,,22.9194099,74.1342725,,2024,3,15,2024,6,17,733,25000,1300000,37500,25000,,,200000,245398,300000,457449,100,50733,10.83435158,Moderate,1,0,West Rajasthan
No,nat-met-ext-hea,Natural,Meteorological,Extreme temperature,Heat wave,,22.2973142,73.1942567,,2024,3,15,2024,6,17,733,25000,1300000,37500,25000,,,200000,245398,300000,457449,100,50733,10.83435158,Moderate,1,0,Punjab
No,nat-met-ext-hea,Natural,Meteorological,Extreme temperature,Heat wave,,23.0215374,72.5800568,,2024,3,15,2024,6,17,733,25000,1300000,37500,25000,,,200000,245398,300000,457449,100,50733,10.83435158,Moderate,1,0,Haryana
No,nat-met-ext-hea,Natural,Meteorological,Extreme temperature,Heat wave,,23.4843217,73.3986096,,2024,3,15,2024,6,17,733,25000,1300000,37500,25000,,,200000,245398,300000,457449,100,50733,10.83435158,Moderate,1,0,Chandigarh
No,nat-met-sto-hai,Natural,Meteorological,Storm,Hail,,23.0757335,87.3146343,,2024,5,5,2024,5,5,1,0,77000,37500,77000,,,200000,245398,300000,457449,100,77001,11.25158667,Moderate,1,0,Bishnupur
No,nat-met-sto-hai,Natural,Meteorological,Storm,Hail,,28.0937702,94.5921326,,2024,5,5,2024,5,5,1,0,77000,37500,77000,,,200000,245398,300000,457449,100,77001,11.25158667,Moderate,1,0,Imphal West
No,nat-met-sto-hai,Natural,Meteorological,Storm,Hail,,24.8328129,94.0166864,,2024,5,5,2024,5,5,1,0,77000,37500,77000,,,200000,245398,300000,457449,100,77001,11.25158667,Moderate,1,0,Imphal East
No,nat-met-sto-hai,Natural,Meteorological,Storm,Hail,,31.0408468,78.7815312,,2024,5,5,2024,5,5,1,0,77000,37500,77000,,,200000,245398,300000,457449,100,77001,11.25158667,Moderate,1,0,Thoubal
No,nat-met-sto-hai,Natural,Meteorological,Storm,Hail,,30.68783,77.873672,,2024,5,5,2024,5,5,1,0,77000,37500,77000,,,200000,245398,300000,457449,100,77001,11.25158667,Moderate,1,0,Kakching
No,nat-met-sto-hai,Natural,Meteorological,Storm,Hail,,24.3626155,94.2594997,,2024,5,5,2024,5,5,1,0,77000,37500,77000,,,200000,245398,300000,457449,100,77001,11.25158667,Moderate,1,0,Tengnoupal
No,nat-met-sto-hai,Natural,Meteorological,Storm,Hail,,25.1527725,93.9713691,,2024,5,5,2024,5,5,1,0,77000,37500,77000,,,200000,245398,300000,457449,100,77001,11.25158667,Moderate,1,0,Kangpokpi
No,nat-met-sto-hai,Natural,Meteorological,Storm,Hail,,30.9366405,75.2335543,,2024,5,5,2024,5,5,1,0,77000,37500,77000,,,200000,245398,300000,457449,100,77001,11.25158667,Moderate,1,0,Noney
No,nat-met-sto-hai,Natural,Meteorological,Storm,Hail,,30.3255646,78.0436813,,2024,5,5,2024,5,5,1,0,77000,37500,77000,,,200000,245398,300000,457449,100,77001,11.25158667,Moderate,1,0,and Churachandpur districts (Manipur state)
No,nat-met-sto-sev,Natural,Meteorological,Storm,Severe weather,,29.235032,80.1023068,,2024,5,13,2024,5,13,16,75,1300000,37500,75,,,200000,245398,300000,457449,100,166,5.117993812,Mild,0,0,Bombay
No,nat-met-sto-tro,Natural,Meteorological,Storm,Tropical cyclone,,29.9123514,78.0087178,,2024,5,26,2024,5,30,51,500,2109143,37500,2109643,,,200000,245398,300000,457449,100,2110194,14.56229092,High,2,0,Aizawl (Mizoram state)
No,nat-met-sto-tro,Natural,Meteorological,Storm,Tropical cyclone,,29.8473168,78.7070479,,2024,5,26,2024,5,30,51,500,2109143,37500,2109643,,,200000,245398,300000,457449,100,2110194,14.56229092,High,2,0,Bengal
No,nat-met-sto-tro,Natural,Meteorological,Storm,Tropical cyclone,,30.0087902,79.9280183,,2024,5,26,2024,5,30,51,500,2109143,37500,2109643,,,200000,245398,300000,457449,100,2110194,14.56229092,High,2,0,Assam
No,nat-met-sto-tro,Natural,Meteorological,Storm,Tropical cyclone,,29.585871,80.215167,,2024,5,26,2024,5,30,51,500,2109143,37500,2109643,,,200000,245398,300000,457449,100,2110194,14.56229092,High,2,0,Nagaland
No,nat-met-sto-tro,Natural,Meteorological,Storm,Tropical cyclone,,29.294995,79.4162511,,2024,5,26,2024,5,30,51,500,2109143,37500,2109643,,,200000,245398,300000,457449,100,2110194,14.56229092,High,2,0,Meghalaya states
No,nat-met-sto-tro,Natural,Meteorological,Storm,Tropical cyclone,,22.9868,87.855,,2024,5,26,2024,5,30,51,500,2109143,37500,2109643,,,200000,245398,300000,457449,100,2110194,14.56229092,High,2,0,West Bengal
No,nat-met-sto-tro,Natural,Meteorological,Storm,Tropical cyclone,,27.0402451,88.2657867,,2024,5,26,2024,5,30,51,500,2109143,37500,2109643,,,200000,245398,300000,457449,100,2110194,14.56229092,High,2,0,Telangana
No,nat-hyd-flo-fla,Natural,Hydrological,Flood,Flash flood,Monsoon rains,26.2006,92.9376,,2024,5,15,2024,7,8,48,0,2100000,37500,2100000,,,200000,245398,300000,457449,100,2100048,14.55747124,High,2,0,Assam and Meghalaya states
No,nat-hyd-flo-flo,Natural,Hydrological,Flood,Flood (General),Monsoon rain,11.3323723,78.6098639,,2024,7,9,2024,7,15,125,20,1000000,37500,1000020,,,200000,245398,300000,457449,100,1000165,13.81567654,Moderate,1,0,Pratapgarh
No,nat-hyd-flo-flo,Natural,Hydrological,Flood,Flood (General),Monsoon rain,10.5270099,76.214621,,2024,7,9,2024,7,15,125,20,1000000,37500,1000020,,,200000,245398,300000,457449,100,1000165,13.81567654,Moderate,1,0,Sultanpur
No,nat-hyd-flo-flo,Natural,Hydrological,Flood,Flood (General),Monsoon rain,9.3188306,76.5337394,,2024,7,9,2024,7,15,125,20,1000000,37500,1000020,,,200000,245398,300000,457449,100,1000165,13.81567654,Moderate,1,0,Chandauli
No,nat-hyd-flo-flo,Natural,Hydrological,Flood,Flood (General),Monsoon rain,27.2093072,79.0625369,,2024,7,9,2024,7,15,125,20,1000000,37500,1000020,,,200000,245398,300000,457449,100,1000165,13.81567654,Moderate,1,0,Mainpuri
No,nat-hyd-flo-flo,Natural,Hydrological,Flood,Flood (General),Monsoon rain,25.6093239,85.1235252,,2024,7,9,2024,7,15,125,20,1000000,37500,1000020,,,200000,245398,300000,457449,100,1000165,13.81567654,Moderate,1,0,Prayagraj
No,nat-hyd-flo-flo,Natural,Hydrological,Flood,Flood (General),Monsoon rain,24.7964355,85.0079563,,2024,7,9,2024,7,15,125,20,1000000,37500,1000020,,,200000,245398,300000,457449,100,1000165,13.81567654,Moderate,1,0,Auraiya
No,nat-hyd-flo-flo,Natural,Hydrological,Flood,Flood (General),Monsoon rain,25.2494829,86.9828131,,2024,7,9,2024,7,15,125,20,1000000,37500,1000020,,,200000,245398,300000,457449,100,1000165,13.81567654,Moderate,1,0,Deoria
No,nat-hyd-flo-flo,Natural,Hydrological,Flood,Flood (General),Monsoon rain,19.877263,75.3390241,,2024,7,9,2024,7,15,125,20,1000000,37500,1000020,,,200000,245398,300000,457449,100,1000165,13.81567654,Moderate,1,0,Hathras
No,nat-hyd-flo-flo,Natural,Hydrological,Flood,Flood (General),Monsoon rain,24.75,85.5,,2024,7,9,2024,7,15,125,20,1000000,37500,1000020,,,200000,245398,300000,457449,100,1000165,13.81567654,Moderate,1,0,Varanasi and Siddharthnagar districts (Uttar Pradesh)
No,nat-hyd-flo-flo,Natural,Hydrological,Flood,Flood (General),Monsoon rain,23.5513927,87.3115963,,2024,7,9,2024,7,15,125,20,1000000,37500,1000020,,,200000,245398,300000,457449,100,1000165,13.81567654,Moderate,1,0,Assam
No,nat-hyd-mmw-lan,Natural,Hydrological,Mass movement (wet),Landslide (wet),Monsoon rain,34.0738895,74.8022192,,2024,7,30,2024,7,30,378,91,1300000,3000,3091,,,200000,245398,140000,140000,100,3560,8.177796683,Moderate,1,0,Mundakkai
No,nat-hyd-mmw-lan,Natural,Hydrological,Mass movement (wet),Landslide (wet),Monsoon rain,21.5044973,86.919144,,2024,7,30,2024,7,30,378,91,1300000,3000,3091,,,200000,245398,140000,140000,100,3560,8.177796683,Moderate,1,0,Chooralmala
No,nat-hyd-mmw-lan,Natural,Hydrological,Mass movement (wet),Landslide (wet),Monsoon rain,20.9854052,86.5934226,,2024,7,30,2024,7,30,378,91,1300000,3000,3091,,,200000,245398,140000,140000,100,3560,8.177796683,Moderate,1,0,Attamala
No,nat-hyd-mmw-lan,Natural,Hydrological,Mass movement (wet),Landslide (wet),Monsoon rain,24.6637,80.9154547,,2024,7,30,2024,7,30,378,91,1300000,3000,3091,,,200000,245398,140000,140000,100,3560,8.177796683,Moderate,1,0,Noolpuzha villages (Wayanad district
No,nat-hyd-flo-flo,Natural,Hydrological,Flood,Flood (General),Heavy rains,31.6516617,77.0092542,,2024,7,31,2024,8,23,46,0,1300000,37500,0,,,200000,245398,300000,457449,100,46,3.850147602,Mild,0,0,Mandi
No,nat-hyd-flo-flo,Natural,Hydrological,Flood,Flood (General),Heavy rains,31.9578974,77.1089232,,2024,7,31,2024,8,23,46,0,1300000,37500,0,,,200000,245398,300000,457449,100,46,3.850147602,Mild,0,0,Kullu
No,nat-hyd-flo-flo,Natural,Hydrological,Flood,Flood (General),Heavy rains,31.1048,77.1665,,2024,7,31,2024,8,23,46,0,1300000,37500,0,,,200000,245398,300000,457449,100,46,3.850147602,Mild,0,0,Shimla districts (Himachal Pradesh)
No,nat-hyd-flo-fla,Natural,Hydrological,Flood,Flash flood,Heavy rains,23.4847374,88.5567067,,2024,8,19,2024,8,23,26,0,1700000,37500,1700000,,,200000,245398,300000,457449,100,1700026,14.34615469,High,2,0,Tripura state
No,nat-hyd-mmw-lan,Natural,Hydrological,Mass movement (wet),Landslide (wet),Heavy rains,22.5736296,88.3251045,,2024,8,22,2024,8,22,10,0,90,37500,90,,,200000,245398,300000,457449,100,100,4.615120517,Mild,0,0,Dipu Dara village (Singtam municipality
No,nat-hyd-mmw-lan,Natural,Hydrological,Mass movement (wet),Landslide (wet),Heavy rains,27.3257345,88.6983549,,2024,8,22,2024,8,22,10,0,90,37500,90,,,200000,245398,300000,457449,100,100,4.615120517,Mild,0,0,Gangtok district
No,nat-hyd-flo-flo,Natural,Hydrological,Flood,Flood (General),Monsoon rains,22.2587,71.1924,,2024,8,26,2024,8,27,25,23,8007150,37500,8007173,,,200000,245398,300000,457449,100,8007221,15.89585444,High,2,0,Gujarat
No,nat-hyd-flo-flo,Natural,Hydrological,Flood,Flood (General),Monsoon rains,22.9964948,87.6855882,,2024,8,26,2024,8,27,25,23,8007150,37500,8007173,,,200000,245398,300000,457449,100,8007221,15.89585444,High,2,0,Maharashtra
No,nat-hyd-flo-flo,Natural,Hydrological,Flood,Flood (General),Monsoon rains,23.9408,91.9882,,2024,8,26,2024,8,27,25,23,8007150,37500,8007173,,,200000,245398,300000,457449,100,8007221,15.89585444,High,2,0,Tripura States
No,nat-hyd-flo-flo,Natural,Hydrological,Flood,Flood (General),Heavy rains,18.5213738,73.8545071,,2024,10,4,2024,10,7,15,0,1300000,37500,0,,,200000,245398,300000,457449,100,15,2.772588722,Mild,0,0,Meghalaya
No,nat-met-sto-tro,Natural,Meteorological,Storm,Tropical cyclone,,20.9517,85.0985,,2024,10,24,2024,10,25,9,12,3810000,37500,3810012,,,200000,245398,73300,73300,100,3810033,15.15314867,High,2,0,Odisha and West Bengal
No,nat-met-sto-tro,Natural,Meteorological,Storm,Tropical cyclone,,12.9792116,77.6952364,,2024,12,1,2024,12,1,20,0,1300000,37500,0,,,200000,245398,300000,457449,100,20,3.044522438,Mild,0,0,Chennai city
No,nat-met-sto-tro,Natural,Meteorological,Storm,Tropical cyclone,,23.4559809,85.2557301,,2024,12,1,2024,12,1,20,0,1300000,37500,0,,,200000,245398,300000,457449,100,20,3.044522438,Mild,0,0,Ooty town
No,nat-met-sto-tro,Natural,Meteorological,Storm,Tropical cyclone,,22.9964948,87.6855882,,2024,12,1,2024,12,1,20,0,1300000,37500,0,,,200000,245398,300000,457449,100,20,3.044522438,Mild,0,0,Vellore city
No,nat-met-sto-tro,Natural,Meteorological,Storm,Tropical cyclone,,11.1271,78.6569,,2024,12,1,2024,12,1,20,0,1300000,37500,0,,,200000,245398,300000,457449,100,20,3.044522438,Mild,0,0,Puducherry city (Tamil Nadu)
No,nat-hyd-mmw-ava,Natural,Hydrological,Mass movement (wet),Avalanche (wet),,13.325036,79.6480611,,2025,2,28,2025,2,28,8,46,173,37500,219,,,200000,245398,300000,457449,68.63567228,273,5.613128106,Mild,0,0,Chamoli district (Uttarakhand)
No,nat-met-sto-sev,Natural,Meteorological,Storm,Severe weather,,14.4752936,78.8216861,,2025,3,22,2025,3,26,2,67,3000,37500,3067,,,200000,245398,2900,457449,68.63567228,3136,8.051022208,Moderate,1,0,Ganjam
No,nat-met-sto-sev,Natural,Meteorological,Storm,Severe weather,,14.6783221,77.6065039,,2025,3,22,2025,3,26,2,67,3000,37500,3067,,,200000,245398,2900,457449,68.63567228,3136,8.051022208,Moderate,1,0,Puri
No,nat-met-sto-sev,Natural,Meteorological,Storm,Severe weather,,20.9517,85.0985,,2025,3,22,2025,3,26,2,67,3000,37500,3067,,,200000,245398,2900,457449,68.63567228,3136,8.051022208,Moderate,1,0,Mayurbhanj districts (Odisha state)
No,nat-met-sto-sev,Natural,Meteorological,Storm,Severe weather,,23.9408,91.9882,,2025,4,18,2025,4,24,2,2,2500,37500,2502,,,200000,245398,300000,457449,68.63567228,2506,7.826842098,Moderate,1,0,Tripura state
No,nat-met-sto-sev,Natural,Meteorological,Storm,Severe weather,,24.8003692,93.9365742,,2025,5,4,2025,5,7,14,16,35,37500,51,,,200000,245398,300000,457449,68.63567228,81,4.406719247,Mild,0,0,Kheda
No,nat-met-sto-sev,Natural,Meteorological,Storm,Severe weather,,22.9194099,74.1342725,,2025,5,4,2025,5,7,14,16,35,37500,51,,,200000,245398,300000,457449,68.63567228,81,4.406719247,Mild,0,0,Dahod
No,nat-met-sto-sev,Natural,Meteorological,Storm,Severe weather,,22.2973142,73.1942567,,2025,5,4,2025,5,7,14,16,35,37500,51,,,200000,245398,300000,457449,68.63567228,81,4.406719247,Mild,0,0,Vadodara
No,nat-met-sto-sev,Natural,Meteorological,Storm,Severe weather,,19.0349645,72.8955356,,2025,5,4,2025,5,7,14,16,35,37500,51,,,200000,245398,300000,457449,68.63567228,81,4.406719247,Mild,0,0,Ahmedabad
No,nat-met-sto-sev,Natural,Meteorological,Storm,Severe weather,,11.3323723,78.6098639,,2025,5,4,2025,5,7,14,16,35,37500,51,,,200000,245398,300000,457449,68.63567228,81,4.406719247,Mild,0,0,Aravalli
No,nat-met-sto-sev,Natural,Meteorological,Storm,Severe weather,,19.6759452,78.5339895,,2025,5,4,2025,5,7,14,16,35,37500,51,,,200000,245398,300000,457449,68.63567228,81,4.406719247,Mild,0,0,Panchmahal districts (Gujarat state)
No,nat-hyd-flo-flo,Natural,Hydrological,Flood,Flood (General),Monsoonal rain,14.4956602,78.8349278,,2025,5,31,2025,6,1,50,0,1441247,37500,1441247,,,200000,245398,300000,457449,68.63567228,1441297,14.18105465,High,2,0,Assam
No,nat-hyd-flo-flo,Natural,Hydrological,Flood,Flood (General),Monsoonal rain,17.360589,78.4740613,,2025,5,31,2025,6,1,50,0,1441247,37500,1441247,,,200000,245398,300000,457449,68.63567228,1441297,14.18105465,High,2,0,Arunachal Pradesh
No,nat-hyd-flo-flo,Natural,Hydrological,Flood,Flood (General),Monsoonal rain,18.4348122,79.1328042,,2025,5,31,2025,6,1,50,0,1441247,37500,1441247,,,200000,245398,300000,457449,68.63567228,1441297,14.18105465,High,2,0,Mizoram
No,nat-hyd-flo-flo,Natural,Hydrological,Flood,Flood (General),Monsoonal rain,17.2465351,80.1500326,,2025,5,31,2025,6,1,50,0,1441247,37500,1441247,,,200000,245398,300000,457449,68.63567228,1441297,14.18105465,High,2,0,Manipur
No,nat-hyd-flo-flo,Natural,Hydrological,Flood,Flood (General),Monsoonal rain,15.8309251,78.0425373,,2025,5,31,2025,6,1,50,0,1441247,37500,1441247,,,200000,245398,300000,457449,68.63567228,1441297,14.18105465,High,2,0,Sikkim
No,nat-hyd-flo-flo,Natural,Hydrological,Flood,Flood (General),Monsoonal rain,16.7434538,77.9923191,,2025,5,31,2025,6,1,50,0,1441247,37500,1441247,,,200000,245398,300000,457449,68.63567228,1441297,14.18105465,High,2,0,Meghalaya Nagaland
No,nat-hyd-flo-flo,Natural,Hydrological,Flood,Flood (General),Monsoonal rain,17.9375095,78.211745,,2025,5,31,2025,6,1,50,0,1441247,37500,1441247,,,200000,245398,300000,457449,68.63567228,1441297,14.18105465,High,2,0,Tripura
No,nat-hyd-flo-flo,Natural,Hydrological,Flood,Flood (General),Monsoonal rain,17.0504406,79.2669235,,2025,5,31,2025,6,1,50,0,1441247,37500,1441247,,,200000,245398,300000,457449,68.63567228,1441297,14.18105465,High,2,0,Meghalaya states
No,nat-met-sto-sev,Natural,Meteorological,Storm,Severe weather,,14.4493717,79.9873763,,2025,6,20,2025,6,26,27,1,33583,37500,33584,,,200000,245398,300000,457449,68.63567228,33612,10.42266818,Moderate,1,0,Rajasthan
No,nat-met-sto-sev,Natural,Meteorological,Storm,Severe weather,,18.6732693,78.0978477,,2025,6,20,2025,6,26,27,1,33583,37500,33584,,,200000,245398,300000,457449,68.63567228,33612,10.42266818,Moderate,1,0,Madhya Pradesh
No,nat-met-sto-sev,Natural,Meteorological,Storm,Severe weather,,22.2587,71.1924,,2025,6,20,2025,6,26,27,1,33583,37500,33584,,,200000,245398,300000,457449,68.63567228,33612,10.42266818,Moderate,1,0,Gujarat
No,nat-met-sto-sev,Natural,Meteorological,Storm,Severe weather,,17.9820644,79.5970954,,2025,6,20,2025,6,26,27,1,33583,37500,33584,,,200000,245398,300000,457449,68.63567228,33612,10.42266818,Moderate,1,0,Odisha
No,nat-met-sto-sev,Natural,Meteorological,Storm,Severe weather,,30.0668,79.0193,,2025,6,20,2025,6,26,27,1,33583,37500,33584,,,200000,245398,300000,457449,68.63567228,33612,10.42266818,Moderate,1,0,Uttarakhand
No,nat-hyd-flo-fla,Natural,Hydrological,Flood,Flash flood,Monsoonal rains,24.0621532,87.6982823,,2025,6,20,2025,7,7,140,74,80000,37500,80074,,,200000,245398,300000,457449,68.63567228,80288,11.2933879,Moderate,1,0,Himachal Pradesh
No,nat-hyd-flo-fla,Natural,Hydrological,Flood,Flash flood,Monsoonal rains,23.2495714,87.8681751,,2025,6,20,2025,7,7,140,74,80000,37500,80074,,,200000,245398,300000,457449,68.63567228,80288,11.2933879,Moderate,1,0,Uttarakhand
No,nat-hyd-mmw-mud,Natural,Hydrological,Mass movement (wet),Mudslide,Violent cloudburst,24.1745993,88.2721335,,2025,8,5,2025,8,5,105,0,1300000,37500,0,,,200000,245398,300000,457449,68.63567228,105,4.663439094,Mild,0,0,Dharali village (Uttarkashi district
No,nat-hyd-mmw-mud,Natural,Hydrological,Mass movement (wet),Mudslide,Violent cloudburst,30.0668,79.0193,,2025,8,5,2025,8,5,105,0,1300000,37500,0,,,200000,245398,300000,457449,68.63567228,105,4.663439094,Mild,0,0,Uttarakhand state)
No,nat-hyd-flo-fla,Natural,Hydrological,Flood,Flash flood,Heavy rain,24.2677937,87.2485495,,2025,8,14,2025,8,15,61,300,1300000,37500,300,,,200000,245398,300000,457449,68.63567228,661,6.495265556,Mild,0,0,Kishtwar (Jammu and Kashmir state)
No,nat-hyd-mmw-lan,Natural,Hydrological,Mass movement (wet),Landslide (wet),Heavy rain,25.0320437,87.691764,,2025,8,26,2025,8,26,41,0,3500,37500,3500,,,200000,245398,300000,457449,68.63567228,3541,8.172446818,Moderate,1,0,Jammu and Kashmir region
No,nat-hyd-flo-flo,Natural,Hydrological,Flood,Flood (General),Monsoon rain,31.1471,75.3412,,2025,8,15,2025,9,19,52,0,400000,37500,400000,,,200000,245398,300000,457449,68.63567228,400052,12.89935232,Moderate,1,0,Punjab state
No,nat-hyd-flo-fla,Natural,Hydrological,Flood,Flash flood,,24.8328273,86.8161114,,2025,9,15,2025,9,17,33,0,900,37500,900,,,200000,245398,300000,457449,68.63567228,933,6.839476438,Mild,0,0,Dehradun
No,nat-hyd-flo-fla,Natural,Hydrological,Flood,Flash flood,,25.2861354,87.1304229,,2025,9,15,2025,9,17,33,0,900,37500,900,,,200000,245398,300000,457449,68.63567228,933,6.839476438,Mild,0,0,Champawat
No,nat-hyd-flo-fla,Natural,Hydrological,Flood,Flash flood,,25.2202864,86.5161484,,2025,9,15,2025,9,17,33,0,900,37500,900,,,200000,245398,300000,457449,68.63567228,933,6.839476438,Mild,0,0,Haridwar
No,nat-hyd-flo-fla,Natural,Hydrological,Flood,Flash flood,,29.8473168,78.7070479,,2025,9,15,2025,9,17,33,0,900,37500,900,,,200000,245398,300000,457449,68.63567228,933,6.839476438,Mild,0,0,Pauri Garhwal
No,nat-hyd-flo-fla,Natural,Hydrological,Flood,Flash flood,,9.8154785,76.9991599,,2025,9,15,2025,9,17,33,0,900,37500,900,,,200000,245398,300000,457449,68.63567228,933,6.839476438,Mild,0,0,Bageshwar
No,nat-hyd-flo-fla,Natural,Hydrological,Flood,Flash flood,,9.6287383,76.6455326,,2025,9,15,2025,9,17,33,0,900,37500,900,,,200000,245398,300000,457449,68.63567228,933,6.839476438,Mild,0,0,Pithoragarh
No,nat-hyd-flo-fla,Natural,Hydrological,Flood,Flash flood,,29.294995,79.4162511,,2025,9,15,2025,9,17,33,0,900,37500,900,,,200000,245398,300000,457449,68.63567228,933,6.839476438,Mild,0,0,Nainital
No,nat-hyd-flo-fla,Natural,Hydrological,Flood,Flash flood,,30.0668,79.0193,,2025,9,15,2025,9,17,33,0,900,37500,900,,,200000,245398,300000,457449,68.63567228,933,6.839476438,Mild,0,0,and Udham Singh Nagar districts (Uttarakhand State)
No,nat-hyd-flo-flo,Natural,Hydrological,Flood,Flood (General),Heavy rains,22.9868,87.855,,2025,10,3,2025,10,7,32,13,1300000,2500,2513,,,200000,245398,2200,457449,68.63567228,2558,7.847371836,Moderate,1,0,Darjeeling (West Bengal)
No,nat-hyd-flo-flo,Natural,Hydrological,Flood,Flood (General),Heavy rains,25.0961,85.3131,,2025,10,3,2025,10,7,32,13,1300000,2500,2513,,,200000,245398,2200,457449,68.63567228,2558,7.847371836,Moderate,1,0,Bihar states
No,nat-met-sto-tro,Natural,Meteorological,Storm,Tropical cyclone,,25.9214451,84.7759731,,2025,11,27,2025,11,29,3,0,1300000,37500,0,,,200000,245398,40000,457449,68.63567228,3,1.386294361,Mild,0,0,Tamil Nadu
No,nat-hyd-flo-fla,Natural,Hydrological,Flood,Flash flood,Monsoonal rains,10.5270099,76.214621,,2018,8,7,2018,8,20,504,0,23000000,220000,23220000,,,200000,245398,2852480,3563391,80.04959626,23220504,16.96054628,High,2,0,Thrissur
No,nat-hyd-flo-fla,Natural,Hydrological,Flood,Flash flood,Monsoonal rains,10.8505,76.2711,,2018,8,7,2018,8,20,504,0,23000000,220000,23220000,,,200000,245398,2852480,3563391,80.04959626,23220504,16.96054628,High,2,0,Chengannur (Kerala state)
No,nat-hyd-flo-fla,Natural,Hydrological,Flood,Flash flood,Monsoonal rains,26.345941,91.039708,,2018,8,7,2018,8,20,504,0,23000000,220000,23220000,,,200000,245398,2852480,3563391,80.04959626,23220504,16.96054628,High,2,0,West Bengal
No,nat-hyd-flo-fla,Natural,Hydrological,Flood,Flash flood,Monsoonal rains,26.4800126,90.5580387,,2018,8,7,2018,8,20,504,0,23000000,220000,23220000,,,200000,245398,2852480,3563391,80.04959626,23220504,16.96054628,High,2,0,Odisha
No,nat-hyd-flo-fla,Natural,Hydrological,Flood,Flash flood,Monsoonal rains,26.4373482,92.0047145,,2018,8,7,2018,8,20,504,0,23000000,220000,23220000,,,200000,245398,2852480,3563391,80.04959626,23220504,16.96054628,High,2,0,Assam
No,nat-hyd-flo-fla,Natural,Hydrological,Flood,Flash flood,Monsoonal rains,27.5945155,94.7192098,,2018,8,7,2018,8,20,504,0,23000000,220000,23220000,,,200000,245398,2852480,3563391,80.04959626,23220504,16.96054628,High,2,0,Nagaland
No,nat-hyd-flo-fla,Natural,Hydrological,Flood,Flash flood,Monsoonal rains,26.0188758,89.9793245,,2018,8,7,2018,8,20,504,0,23000000,220000,23220000,,,200000,245398,2852480,3563391,80.04959626,23220504,16.96054628,High,2,0,Uttar Pradesh
No,nat-hyd-flo-fla,Natural,Hydrological,Flood,Flash flood,Monsoonal rains,27.4844597,94.9019447,,2018,8,7,2018,8,20,504,0,23000000,220000,23220000,,,200000,245398,2852480,3563391,80.04959626,23220504,16.96054628,High,2,0,Himachal Pradesh
No,nat-hyd-flo-fla,Natural,Hydrological,Flood,Flash flood,Monsoonal rains,26.0491877,90.6001859,,2018,8,7,2018,8,20,504,0,23000000,220000,23220000,,,200000,245398,2852480,3563391,80.04959626,23220504,16.96054628,High,2,0,Maharashtra states
No,nat-met-ext-hea,Natural,Meteorological,Extreme temperature,Heat wave,,26.7577925,94.2079645,,2019,6,15,2019,6,17,90,0,1300000,37500,0,,,200000,245398,300000,457449,81.50030941,90,4.510859507,Mild,0,0,Patna
No,nat-met-ext-hea,Natural,Meteorological,Extreme temperature,Heat wave,,26.1468861,91.2227397,,2019,6,15,2019,6,17,90,0,1300000,37500,0,,,200000,245398,300000,457449,81.50030941,90,4.510859507,Mild,0,0,Gaya
No,nat-met-ext-hea,Natural,Meteorological,Extreme temperature,Heat wave,,24.5828196,92.3725487,,2019,6,15,2019,6,17,90,0,1300000,37500,0,,,200000,245398,300000,457449,81.50030941,90,4.510859507,Mild,0,0,Bhagalpur cities
No,nat-met-ext-hea,Natural,Meteorological,Extreme temperature,Heat wave,,26.4912104,90.1215209,,2019,6,15,2019,6,17,90,0,1300000,37500,0,,,200000,245398,300000,457449,81.50030941,90,4.510859507,Mild,0,0,Aurangabad
No,nat-met-ext-hea,Natural,Meteorological,Extreme temperature,Heat wave,,26.290712,92.2922184,,2019,6,15,2019,6,17,90,0,1300000,37500,0,,,200000,245398,300000,457449,81.50030941,90,4.510859507,Mild,0,0,Nawada districts (Bihar)
No,nat-met-sto-lig,Natural,Meteorological,Storm,Lightning/Thunderstorms,,26.3313646,92.7524763,,2019,6,6,2019,6,14,50,0,1300000,37500,0,,,200000,245398,300000,457449,81.50030941,50,3.931825633,Mild,0,0,Uttar Pradesh
No,nat-met-sto-lig,Natural,Meteorological,Storm,Lightning/Thunderstorms,,26.9834936,94.6394226,,2019,6,6,2019,6,14,50,0,1300000,37500,0,,,200000,245398,300000,457449,81.50030941,50,3.931825633,Mild,0,0,Maharashtra
No,nat-met-sto-lig,Natural,Meteorological,Storm,Lightning/Thunderstorms,,26.7677707,92.7014089,,2019,6,6,2019,6,14,50,0,1300000,37500,0,,,200000,245398,300000,457449,81.50030941,50,3.931825633,Mild,0,0,and Bihar
No,nat-met-sto-bli,Natural,Meteorological,Storm,Blizzard/Winter storm,,34.0738895,74.8022192,,2020,1,11,2020,1,14,11,0,1300000,37500,0,,,200000,245398,300000,457449,82.50568385,11,2.48490665,Mild,0,0,Jammu & Kashmir state
No,nat-met-sto-tro,Natural,Meteorological,Storm,Tropical cyclone,,26.1346459,87.4654062,,2020,5,20,2020,5,20,90,0,18000000,37500,18000000,,,200000,245398,13500000,16362509,82.50568385,18000090,16.70588737,High,2,0,Balasore (Baleshwar)
No,nat-met-sto-tro,Natural,Meteorological,Storm,Tropical cyclone,,25.5125411,86.0883392,,2020,5,20,2020,5,20,90,0,18000000,37500,18000000,,,200000,245398,13500000,16362509,82.50568385,18000090,16.70588737,High,2,0,Bhadrak
No,nat-met-sto-tro,Natural,Meteorological,Storm,Tropical cyclone,,26.08299,86.0324951,,2020,5,20,2020,5,20,90,0,18000000,37500,18000000,,,200000,245398,13500000,16362509,82.50568385,18000090,16.70588737,High,2,0,Kendrapada and Jagatsinghpur (Odisha)
No,nat-met-sto-tro,Natural,Meteorological,Storm,Tropical cyclone,,26.4211166,84.3739133,,2020,5,20,2020,5,20,90,0,18000000,37500,18000000,,,200000,245398,13500000,16362509,82.50568385,18000090,16.70588737,High,2,0,East Midunapur
No,nat-met-sto-tro,Natural,Meteorological,Storm,Tropical cyclone,,25.5586421,87.6457196,,2020,5,20,2020,5,20,90,0,18000000,37500,18000000,,,200000,245398,13500000,16362509,82.50568385,18000090,16.70588737,High,2,0,West Midhunapur
No,nat-met-sto-tro,Natural,Meteorological,Storm,Tropical cyclone,,25.4930513,86.6982264,,2020,5,20,2020,5,20,90,0,18000000,37500,18000000,,,200000,245398,13500000,16362509,82.50568385,18000090,16.70588737,High,2,0,North24 Parganas
No,nat-met-sto-tro,Natural,Meteorological,Storm,Tropical cyclone,,26.2984144,87.9466715,,2020,5,20,2020,5,20,90,0,18000000,37500,18000000,,,200000,245398,13500000,16362509,82.50568385,18000090,16.70588737,High,2,0,South24 Parganas
No,nat-met-sto-tro,Natural,Meteorological,Storm,Tropical cyclone,,25.7806118,86.9364753,,2020,5,20,2020,5,20,90,0,18000000,37500,18000000,,,200000,245398,13500000,16362509,82.50568385,18000090,16.70588737,High,2,0,Nadia
No,nat-met-sto-tro,Natural,Meteorological,Storm,Tropical cyclone,,26.3503076,86.2296424,,2020,5,20,2020,5,20,90,0,18000000,37500,18000000,,,200000,245398,13500000,16362509,82.50568385,18000090,16.70588737,High,2,0,Howrah
No,nat-met-sto-tro,Natural,Meteorological,Storm,Tropical cyclone,,25.1364914,85.4436546,,2020,5,20,2020,5,20,90,0,18000000,37500,18000000,,,200000,245398,13500000,16362509,82.50568385,18000090,16.70588737,High,2,0,Kolkata and Hoogli (West Bengal)
No,nat-met-sto-tro,Natural,Meteorological,Storm,Tropical cyclone,,27,84.5,,2021,5,14,2021,5,19,198,153,700000,37500,700153,,,200000,245398,1400000,1620714,86.38165694,700504,13.45955678,Moderate,1,0,Kerala
No,nat-met-sto-tro,Natural,Meteorological,Storm,Tropical cyclone,,15.3173,75.7139,,2021,5,14,2021,5,19,198,153,700000,37500,700153,,,200000,245398,1400000,1620714,86.38165694,700504,13.45955678,Moderate,1,0,Karnataka
No,nat-met-sto-tro,Natural,Meteorological,Storm,Tropical cyclone,,25.7758723,87.4087667,,2021,5,14,2021,5,19,198,153,700000,37500,700153,,,200000,245398,1400000,1620714,86.38165694,700504,13.45955678,Moderate,1,0,Goa
No,nat-met-sto-tro,Natural,Meteorological,Storm,Tropical cyclone,,25.8330757,86.6143751,,2021,5,14,2021,5,19,198,153,700000,37500,700153,,,200000,245398,1400000,1620714,86.38165694,700504,13.45955678,Moderate,1,0,Maharashtra
No,nat-met-sto-tro,Natural,Meteorological,Storm,Tropical cyclone,,25.7747885,85.8672314,,2021,5,14,2021,5,19,198,153,700000,37500,700153,,,200000,245398,1400000,1620714,86.38165694,700504,13.45955678,Moderate,1,0,Gujarat
No,nat-met-sto-tro,Natural,Meteorological,Storm,Tropical cyclone,,25.1250741,85.8160771,,2021,5,14,2021,5,19,198,153,700000,37500,700153,,,200000,245398,1400000,1620714,86.38165694,700504,13.45955678,Moderate,1,0,Rajasthan
No,nat-met-sto-tro,Natural,Meteorological,Storm,Tropical cyclone,,26.5942841,85.500428,,2021,5,14,2021,5,19,198,153,700000,37500,700153,,,200000,245398,1400000,1620714,86.38165694,700504,13.45955678,Moderate,1,0,Delhi
No,nat-met-sto-tro,Natural,Meteorological,Storm,Tropical cyclone,,26.131008,84.3910745,,2021,5,14,2021,5,19,198,153,700000,37500,700153,,,200000,245398,1400000,1620714,86.38165694,700504,13.45955678,Moderate,1,0,Haryana
No,nat-met-sto-tro,Natural,Meteorological,Storm,Tropical cyclone,,26.8467,80.9462,,2021,5,14,2021,5,19,198,153,700000,37500,700153,,,200000,245398,1400000,1620714,86.38165694,700504,13.45955678,Moderate,1,0,Uttar Pradesh and Uttarakhand
No,nat-met-sto-tro,Natural,Meteorological,Storm,Tropical cyclone,,22.9964948,87.6855882,,2021,5,25,2021,5,29,19,0,1625000,37500,1625000,,,200000,245398,3000000,3472960,86.38165694,1625019,14.30103068,High,2,0,Bengale occidental
No,nat-met-sto-tro,Natural,Meteorological,Storm,Tropical cyclone,,20.9517,85.0985,,2021,5,25,2021,5,29,19,0,1625000,37500,1625000,,,200000,245398,3000000,3472960,86.38165694,1625019,14.30103068,High,2,0,Odisha
No,nat-hyd-flo-flo,Natural,Hydrological,Flood,Flood (General),Heavy rains,25.0961,85.3131,,2021,6,1,2021,6,30,59,0,1000,37500,1000,,,200000,245398,100000,115765,86.38165694,1059,6.966024187,Mild,0,0,Bihar
No,nat-hyd-flo-flo,Natural,Hydrological,Flood,Flood (General),Heavy rains,26.8467,80.9462,,2021,6,1,2021,6,30,59,0,1000,37500,1000,,,200000,245398,100000,115765,86.38165694,1059,6.966024187,Mild,0,0,Uttar Pradesh
No,nat-hyd-flo-flo,Natural,Hydrological,Flood,Flood (General),Heavy rains,26.6262805,88.7334485,,2021,6,1,2021,6,30,59,0,1000,37500,1000,,,200000,245398,100000,115765,86.38165694,1059,6.966024187,Mild,0,0,Gujarat
No,nat-hyd-flo-flo,Natural,Hydrological,Flood,Flood (General),Heavy rains,10.8505,76.2711,,2021,6,1,2021,6,30,59,0,1000,37500,1000,,,200000,245398,100000,115765,86.38165694,1059,6.966024187,Mild,0,0,Kerala
No,nat-hyd-flo-flo,Natural,Hydrological,Flood,Flood (General),Heavy rains,15.3173,75.7139,,2021,6,1,2021,6,30,59,0,1000,37500,1000,,,200000,245398,100000,115765,86.38165694,1059,6.966024187,Mild,0,0,Karnataka
No,nat-hyd-flo-flo,Natural,Hydrological,Flood,Flood (General),Heavy rains,30.0668,79.0193,,2021,6,1,2021,6,30,59,0,1000,37500,1000,,,200000,245398,100000,115765,86.38165694,1059,6.966024187,Mild,0,0,Uttarakhand
No,nat-hyd-flo-flo,Natural,Hydrological,Flood,Flood (General),Heavy rains,19.7515,75.7139,,2021,6,1,2021,6,30,59,0,1000,37500,1000,,,200000,245398,100000,115765,86.38165694,1059,6.966024187,Mild,0,0,Maharashtra
No,nat-hyd-flo-flo,Natural,Hydrological,Flood,Flood (General),Heavy rains,11.0018115,76.9628425,,2021,6,1,2021,6,30,59,0,1000,37500,1000,,,200000,245398,100000,115765,86.38165694,1059,6.966024187,Mild,0,0,Chhattisgarh
No,nat-hyd-flo-flo,Natural,Hydrological,Flood,Flood (General),Heavy rains,22.9868,87.855,,2021,6,1,2021,6,30,59,0,1000,37500,1000,,,200000,245398,100000,115765,86.38165694,1059,6.966024187,Mild,0,0,West Bengal
No,nat-hyd-flo-flo,Natural,Hydrological,Flood,Flood (General),Heavy rains,33.6649297,75.1629584,,2021,6,1,2021,6,30,59,0,1000,37500,1000,,,200000,245398,100000,115765,86.38165694,1059,6.966024187,Mild,0,0,and Tripura states
No,nat-hyd-flo-flo,Natural,Hydrological,Flood,Flood (General),Monsoon rains,18.5213738,73.8545071,,2021,6,1,2021,9,30,1282,0,375000,37500,375000,,,200000,245398,3100000,3588725,86.38165694,376282,12.8380968,Moderate,1,0,Pune
No,nat-hyd-flo-flo,Natural,Hydrological,Flood,Flood (General),Monsoon rains,23.8244987,69.7298378,,2021,6,1,2021,9,30,1282,0,375000,37500,375000,,,200000,245398,3100000,3588725,86.38165694,376282,12.8380968,Moderate,1,0,Raigada
No,nat-hyd-flo-flo,Natural,Hydrological,Flood,Flood (General),Monsoon rains,32.1771744,76.3753009,,2021,6,1,2021,9,30,1282,0,375000,37500,375000,,,200000,245398,3100000,3588725,86.38165694,376282,12.8380968,Moderate,1,0,Satara and Ratnagiri (Maharashtra)
No,nat-hyd-flo-flo,Natural,Hydrological,Flood,Flood (General),Monsoon rains,15.2993,74.124,,2021,6,1,2021,9,30,1282,0,375000,37500,375000,,,200000,245398,3100000,3588725,86.38165694,376282,12.8380968,Moderate,1,0,Goa
No,nat-hyd-flo-flo,Natural,Hydrological,Flood,Flood (General),Monsoon rains,23.8268882,68.7751578,,2021,6,1,2021,9,30,1282,0,375000,37500,375000,,,200000,245398,3100000,3588725,86.38165694,376282,12.8380968,Moderate,1,0,Karnataka
No,nat-hyd-flo-flo,Natural,Hydrological,Flood,Flood (General),Monsoon rains,23.6102,85.2799,,2021,6,1,2021,9,30,1282,0,375000,37500,375000,,,200000,245398,3100000,3588725,86.38165694,376282,12.8380968,Moderate,1,0,Jharkhand
No,nat-hyd-flo-flo,Natural,Hydrological,Flood,Flood (General),Monsoon rains,22.9964948,87.6855882,,2021,6,1,2021,9,30,1282,0,375000,37500,375000,,,200000,245398,3100000,3588725,86.38165694,376282,12.8380968,Moderate,1,0,Bengale
No,nat-hyd-flo-flo,Natural,Hydrological,Flood,Flood (General),Monsoon rains,11.7151292,76.1271185,,2021,6,1,2021,9,30,1282,0,375000,37500,375000,,,200000,245398,3100000,3588725,86.38165694,376282,12.8380968,Moderate,1,0,Himachal Pradesh
No,nat-hyd-flo-flo,Natural,Hydrological,Flood,Flood (General),Monsoon rains,11.2450558,75.7754716,,2021,6,1,2021,9,30,1282,0,375000,37500,375000,,,200000,245398,3100000,3588725,86.38165694,376282,12.8380968,Moderate,1,0,Uttarakand states
No,nat-hyd-flo-flo,Natural,Hydrological,Flood,Flood (General),Heavy rains,11.8763836,75.3737973,,2021,11,6,2021,11,8,14,0,11000,37500,11000,,,200000,245398,300000,457449,86.38165694,11014,9.307013259,Moderate,1,0,Tamil Nadu
No,nat-hyd-flo-flo,Natural,Hydrological,Flood,Flood (General),Heavy rains,13.325036,79.6480611,,2021,11,18,2021,11,19,62,0,74500,37500,74500,,,200000,245398,300000,457449,86.38165694,74562,11.21939968,Moderate,1,0,Chittoor
No,nat-hyd-flo-flo,Natural,Hydrological,Flood,Flood (General),Heavy rains,14.4752936,78.8216861,,2021,11,18,2021,11,19,62,0,74500,37500,74500,,,200000,245398,300000,457449,86.38165694,74562,11.21939968,Moderate,1,0,Kadapa
No,nat-hyd-flo-flo,Natural,Hydrological,Flood,Flood (General),Heavy rains,14.6783221,77.6065039,,2021,11,18,2021,11,19,62,0,74500,37500,74500,,,200000,245398,300000,457449,86.38165694,74562,11.21939968,Moderate,1,0,Anantapur
No,nat-hyd-flo-flo,Natural,Hydrological,Flood,Flood (General),Heavy rains,15.9129,79.74,,2021,11,18,2021,11,19,62,0,74500,37500,74500,,,200000,245398,300000,457449,86.38165694,74562,11.21939968,Moderate,1,0,Nellore districts (Andhra Pradesh)
No,nat-hyd-mmw-lan,Natural,Hydrological,Mass movement (wet),Landslide (wet),Heavy rains,24.6637,80.9154547,,2022,6,30,2022,7,6,67,0,1300000,37500,0,,,200000,245398,300000,457449,93.29460735,67,4.219507705,Mild,0,0,Tapul village (Noney District
No,nat-hyd-mmw-lan,Natural,Hydrological,Mass movement (wet),Landslide (wet),Heavy rains,20.5431241,84.6897321,,2022,6,30,2022,7,6,67,0,1300000,37500,0,,,200000,245398,300000,457449,93.29460735,67,4.219507705,Mild,0,0,Manipur State)
No,nat-hyd-mmw-lan,Natural,Hydrological,Mass movement (wet),Landslide (wet),Heavy rains,19.054999,72.8692035,,2022,6,30,2022,7,6,67,0,1300000,37500,0,,,200000,245398,300000,457449,93.29460735,67,4.219507705,Mild,0,0,Mumbai
No,nat-hyd-flo-fla,Natural,Hydrological,Flood,Flash flood,Monsoon rains,31.6516617,77.0092542,,2023,6,26,2023,7,12,62,0,5,37500,5,,,200000,245398,3000,3088,97.13499264,67,4.219507705,Mild,0,0,Mandi
No,nat-hyd-flo-fla,Natural,Hydrological,Flood,Flash flood,Monsoon rains,11.6469616,78.2106958,,2023,6,26,2023,7,12,62,0,5,37500,5,,,200000,245398,3000,3088,97.13499264,67,4.219507705,Mild,0,0,Solan and Hamirpur districts (Himachal Pradesh)
No,nat-hyd-flo-fla,Natural,Hydrological,Flood,Flash flood,Monsoon rains,11.3033889,78.118604,,2023,6,26,2023,7,12,62,0,5,37500,5,,,200000,245398,3000,3088,97.13499264,67,4.219507705,Mild,0,0,Uttarakhand
No,nat-hyd-flo-fla,Natural,Hydrological,Flood,Flash flood,Monsoon rains,10.8217671,78.3828654,,2023,6,26,2023,7,12,62,0,5,37500,5,,,200000,245398,3000,3088,97.13499264,67,4.219507705,Mild,0,0,Punjab
No,nat-hyd-flo-fla,Natural,Hydrological,Flood,Flash flood,Monsoon rains,11.4905282,77.3505274,,2023,6,26,2023,7,12,62,0,5,37500,5,,,200000,245398,3000,3088,97.13499264,67,4.219507705,Mild,0,0,NewDelhi
No,nat-hyd-flo-fla,Natural,Hydrological,Flood,Flash flood,Monsoon rains,10.8067917,78.7039861,,2023,6,26,2023,7,12,62,0,5,37500,5,,,200000,245398,3000,3088,97.13499264,67,4.219507705,Mild,0,0,Haryana
No,nat-hyd-mmw-lan,Natural,Hydrological,Mass movement (wet),Landslide (wet),Heavy rain,12.9021849,79.061104,,2000,7,12,2000,7,12,58,38,7000,37500,7038,,,200000,245398,300000,457449,54.89515197,7134,8.87276753,Moderate,1,0,Ghatkopar village (Mumbai Suburban district)
No,nat-cli-wil-for,Natural,Climatological,Wildfire,Forest fire,,12.1456131,78.1132217,,2018,3,10,2018,3,10,17,0,1300000,37500,0,,,200000,245398,300000,457449,80.04959626,17,2.890371758,Mild,0,0,Tamil nadu
No,nat-hyd-flo-fla,Natural,Hydrological,Flood,Flash flood,Brief torrential rain,9.9261153,78.1140983,Godavari,2000,8,23,2000,8,31,179,16,1300000,252000,252016,,,200000,245398,173000,315146,54.89515197,252211,12.43802528,Moderate,1,0,Adilabad
No,nat-hyd-flo-fla,Natural,Hydrological,Flood,Flash flood,Brief torrential rain,14.4956602,78.8349278,Godavari,2000,8,23,2000,8,31,179,16,1300000,252000,252016,,,200000,245398,173000,315146,54.89515197,252211,12.43802528,Moderate,1,0,Cuddapah
No,nat-hyd-flo-fla,Natural,Hydrological,Flood,Flash flood,Brief torrential rain,13.0010872,77.3361225,Godavari,2000,8,23,2000,8,31,179,16,1300000,252000,252016,,,200000,245398,173000,315146,54.89515197,252211,12.43802528,Moderate,1,0,East Godavari
No,nat-hyd-flo-fla,Natural,Hydrological,Flood,Flash flood,Brief torrential rain,13,77.583333,Godavari,2000,8,23,2000,8,31,179,16,1300000,252000,252016,,,200000,245398,173000,315146,54.89515197,252211,12.43802528,Moderate,1,0,Guntur
No,nat-hyd-flo-fla,Natural,Hydrological,Flood,Flash flood,Brief torrential rain,17.360589,78.4740613,Godavari,2000,8,23,2000,8,31,179,16,1300000,252000,252016,,,200000,245398,173000,315146,54.89515197,252211,12.43802528,Moderate,1,0,Hyderabad
No,nat-hyd-flo-fla,Natural,Hydrological,Flood,Flash flood,Brief torrential rain,18.2949307,83.8938844,Godavari,2000,8,23,2000,8,31,179,16,1300000,252000,252016,,,200000,245398,173000,315146,54.89515197,252211,12.43802528,Moderate,1,0,Karimnagar
No,nat-hyd-flo-fla,Natural,Hydrological,Flood,Flash flood,Brief torrential rain,18.1141255,83.4114389,Godavari,2000,8,23,2000,8,31,179,16,1300000,252000,252016,,,200000,245398,173000,315146,54.89515197,252211,12.43802528,Moderate,1,0,Khammam
No,nat-hyd-flo-fla,Natural,Hydrological,Flood,Flash flood,Brief torrential rain,16.4082817,77.2914991,Godavari,2000,8,23,2000,8,31,179,16,1300000,252000,252016,,,200000,245398,173000,315146,54.89515197,252211,12.43802528,Moderate,1,0,Krishna
No,nat-hyd-flo-fla,Natural,Hydrological,Flood,Flash flood,Brief torrential rain,15.8309251,78.0425373,Godavari,2000,8,23,2000,8,31,179,16,1300000,252000,252016,,,200000,245398,173000,315146,54.89515197,252211,12.43802528,Moderate,1,0,Kurnool
No,nat-hyd-flo-fla,Natural,Hydrological,Flood,Flash flood,Brief torrential rain,25.8749595,84.1210329,Godavari,2000,8,23,2000,8,31,179,16,1300000,252000,252016,,,200000,245398,173000,315146,54.89515197,252211,12.43802528,Moderate,1,0,Mahbubnagar
No,nat-hyd-flo-fla,Natural,Hydrological,Flood,Flash flood,Brief torrential rain,17.9375095,78.211745,Godavari,2000,8,23,2000,8,31,179,16,1300000,252000,252016,,,200000,245398,173000,315146,54.89515197,252211,12.43802528,Moderate,1,0,Medak
No,nat-hyd-flo-fla,Natural,Hydrological,Flood,Flash flood,Brief torrential rain,15.9240905,80.1863809,Godavari,2000,8,23,2000,8,31,179,16,1300000,252000,252016,,,200000,245398,173000,315146,54.89515197,252211,12.43802528,Moderate,1,0,Nalgonda
No,nat-hyd-flo-fla,Natural,Hydrological,Flood,Flash flood,Brief torrential rain,14.4493717,79.9873763,Godavari,2000,8,23,2000,8,31,179,16,1300000,252000,252016,,,200000,245398,173000,315146,54.89515197,252211,12.43802528,Moderate,1,0,Nellore
No,nat-hyd-flo-fla,Natural,Hydrological,Flood,Flash flood,Brief torrential rain,18.6732693,78.0978477,Godavari,2000,8,23,2000,8,31,179,16,1300000,252000,252016,,,200000,245398,173000,315146,54.89515197,252211,12.43802528,Moderate,1,0,Nizamabad
No,nat-hyd-flo-fla,Natural,Hydrological,Flood,Flash flood,Brief torrential rain,15.6642644,79.4733001,Godavari,2000,8,23,2000,8,31,179,16,1300000,252000,252016,,,200000,245398,173000,315146,54.89515197,252211,12.43802528,Moderate,1,0,Prakasam
No,nat-hyd-flo-fla,Natural,Hydrological,Flood,Flash flood,Brief torrential rain,24.6637,80.9154547,Godavari,2000,8,23,2000,8,31,179,16,1300000,252000,252016,,,200000,245398,173000,315146,54.89515197,252211,12.43802528,Moderate,1,0,Rangareddi
No,nat-hyd-flo-fla,Natural,Hydrological,Flood,Flash flood,Brief torrential rain,15.8572666,74.5069343,Godavari,2000,8,23,2000,8,31,179,16,1300000,252000,252016,,,200000,245398,173000,315146,54.89515197,252211,12.43802528,Moderate,1,0,Visakhapatnam
No,nat-hyd-flo-fla,Natural,Hydrological,Flood,Flash flood,Brief torrential rain,18.7935679,80.815939,Godavari,2000,8,23,2000,8,31,179,16,1300000,252000,252016,,,200000,245398,173000,315146,54.89515197,252211,12.43802528,Moderate,1,0,Warangal
No,nat-hyd-flo-fla,Natural,Hydrological,Flood,Flash flood,Brief torrential rain,16.1793224,75.6999315,Godavari,2000,8,23,2000,8,31,179,16,1300000,252000,252016,,,200000,245398,173000,315146,54.89515197,252211,12.43802528,Moderate,1,0,West Godavari districts (Andhra Pradesh province)
No,nat-hyd-flo-riv,Natural,Hydrological,Flood,Riverine flood,Monsoonal rain,12.3827332,75.6640715,"Ganges, Kosi, Bagmati, Burhi Ganduk, Hoogly, Kharia, Ichamati and Jamuna",2000,9,18,2000,10,21,884,0,24600000,37500,24600000,,,200000,245398,691500,1259674,54.89515197,24600884,17.01829298,High,2,0,Birbhum
No,nat-hyd-flo-riv,Natural,Hydrological,Flood,Riverine flood,Monsoonal rain,13.0301853,76.1744968,"Ganges, Kosi, Bagmati, Burhi Ganduk, Hoogly, Kharia, Ichamati and Jamuna",2000,9,18,2000,10,21,884,0,24600000,37500,24600000,,,200000,245398,691500,1259674,54.89515197,24600884,17.01829298,High,2,0,Bardhaman
No,nat-hyd-flo-riv,Natural,Hydrological,Flood,Riverine flood,Monsoonal rain,19.054999,72.8692035,"Ganges, Kosi, Bagmati, Burhi Ganduk, Hoogly, Kharia, Ichamati and Jamuna",2000,9,18,2000,10,21,884,0,24600000,37500,24600000,,,200000,245398,691500,1259674,54.89515197,24600884,17.01829298,High,2,0,Murshidabad
No,nat-hyd-flo-riv,Natural,Hydrological,Flood,Riverine flood,Monsoonal rain,22.9868,87.855,"Ganges, Kosi, Bagmati, Burhi Ganduk, Hoogly, Kharia, Ichamati and Jamuna",2000,9,18,2000,10,21,884,0,24600000,37500,24600000,,,200000,245398,691500,1259674,54.89515197,24600884,17.01829298,High,2,0,Maldah districts (West Bengal province)
No,nat-hyd-flo-riv,Natural,Hydrological,Flood,Riverine flood,Monsoonal rain,24.2677937,87.2485495,"Ganges, Kosi, Bagmati, Burhi Ganduk, Hoogly, Kharia, Ichamati and Jamuna",2000,9,18,2000,10,21,884,0,24600000,37500,24600000,,,200000,245398,691500,1259674,54.89515197,24600884,17.01829298,High,2,0,Dumka
No,nat-hyd-flo-riv,Natural,Hydrological,Flood,Riverine flood,Monsoonal rain,25.0320437,87.691764,"Ganges, Kosi, Bagmati, Burhi Ganduk, Hoogly, Kharia, Ichamati and Jamuna",2000,9,18,2000,10,21,884,0,24600000,37500,24600000,,,200000,245398,691500,1259674,54.89515197,24600884,17.01829298,High,2,0,Sahibganj
No,nat-hyd-flo-riv,Natural,Hydrological,Flood,Riverine flood,Monsoonal rain,23.6102,85.2799,"Ganges, Kosi, Bagmati, Burhi Ganduk, Hoogly, Kharia, Ichamati and Jamuna",2000,9,18,2000,10,21,884,0,24600000,37500,24600000,,,200000,245398,691500,1259674,54.89515197,24600884,17.01829298,High,2,0,Deoghar districts (Jharkhand province)
No,nat-hyd-flo-riv,Natural,Hydrological,Flood,Riverine flood,Monsoonal rain,24.8328273,86.8161114,"Ganges, Kosi, Bagmati, Burhi Ganduk, Hoogly, Kharia, Ichamati and Jamuna",2000,9,18,2000,10,21,884,0,24600000,37500,24600000,,,200000,245398,691500,1259674,54.89515197,24600884,17.01829298,High,2,0,Banka
No,nat-hyd-flo-riv,Natural,Hydrological,Flood,Riverine flood,Monsoonal rain,25.2861354,87.1304229,"Ganges, Kosi, Bagmati, Burhi Ganduk, Hoogly, Kharia, Ichamati and Jamuna",2000,9,18,2000,10,21,884,0,24600000,37500,24600000,,,200000,245398,691500,1259674,54.89515197,24600884,17.01829298,High,2,0,Bhagalpur
No,nat-hyd-flo-riv,Natural,Hydrological,Flood,Riverine flood,Monsoonal rain,25.2202864,86.5161484,"Ganges, Kosi, Bagmati, Burhi Ganduk, Hoogly, Kharia, Ichamati and Jamuna",2000,9,18,2000,10,21,884,0,24600000,37500,24600000,,,200000,245398,691500,1259674,54.89515197,24600884,17.01829298,High,2,0,Munger
No,nat-hyd-flo-riv,Natural,Hydrological,Flood,Riverine flood,Monsoonal rain,25.0961,85.3131,"Ganges, Kosi, Bagmati, Burhi Ganduk, Hoogly, Kharia, Ichamati and Jamuna",2000,9,18,2000,10,21,884,0,24600000,37500,24600000,,,200000,245398,691500,1259674,54.89515197,24600884,17.01829298,High,2,0,Sheikhpura districts (Bihar province)
No,nat-hyd-flo-riv,Natural,Hydrological,Flood,Riverine flood,Monsoonal rain,19.5670323,76.4164557,,2001,7,4,2001,7,16,86,0,40000,37500,40000,,,200000,245398,116924,207141,56.44657635,40086,10.59880737,Moderate,1,0,Idukki
No,nat-hyd-flo-riv,Natural,Hydrological,Flood,Riverine flood,Monsoonal rain,9.6287383,76.6455326,,2001,7,4,2001,7,16,86,0,40000,37500,40000,,,200000,245398,116924,207141,56.44657635,40086,10.59880737,Moderate,1,0,Kottayam
